33,*74
$GPGSV,3,3,12,23,42,206,,28,66,115,27,25,63,158,,27,56,271,34*78
$GPGGA,181237.0,4913.854304,N,01634.297197,E,1,05,2.9,315.0,M,,,,*0A
$GPRMC,181237.0,A,4913.854304,N,01634.297197,E,,,280309,,,A*62
$GPGSA,A,3,08,15,17,28,27,,,,,,,,,4.5,2.9,3.4*16
$GPVTG,,T,,M,0.0,N,0.0,K*4E
$GPGSV,3,1,12,02,33,299,31,07,11,074,24,08,48,064,21,15,49,299,32*77
$GPGSV,3,2,12,17,06,139,23,19,11,035,29,21,03,307,,22,63,133,*74
$GPGSV,3,3,12,23,42,206,,28,66,115,28,25,63,158,,27,56,271,34*77
$GPGGA,181238.0,4913.854336,N,01634.297096,E,1,05,2.9,315.0,M,,,,*04
$GPRMC,181238.0,A,4913.854336,N,01634.297096,E,,,280309,,,A*6C
$GPGSA,A,3,15,17,28,27,255,,,,,,,,,4.4,2.9,3.2*2B
$GPVTG,,T,,M,0.0,N,0.0,K*4E
$GPGSV,3,1,12,02,33,299,31,07,11,074,24,08,48,064,22,15,49,299,33*75
$GPGSV,3,2,12,17,06,139,23,19,11,035,30,21,03,307,,22,63,133,*7C
$GPGSV,3,3,12,23,42,206,,28,66,115,30,25,63,158,,27,56,271,34*7E
$GPGGA,181239.0,4913.854371,N,01634.296981,E,1,05,2.9,315.0,M,,,,*08
$GPRMC,181239.0,A,4913.854371,N,01634.296981,E,,,280309,,,A*60
$GPGSA,A,3,08,15,17,28,27,,,,,,,,,4.3,2.9,3.2*16
$GPVTG,,T,,M,0.0,N,0.0,K*4E
$GPGSV,3,1,12,02,33,299,31,07,11,074,22,08,48,064,22,15,49,299,34*74
$GPGSV,3,2,12,17,06,139,23,19,11,035,29,21,03,307,,22,63,133,*74
$GPGSV,3,3,12,23,42,206,,28,66,115,29,25,63,158,,27,56,271,34*76
$GPGGA,181240.0,4913.854392,N,01634.296920,E,1,05,2.9,314.5,M,,,,*04
$GPRMC,181240.0,A,4913.854392,N,01634.296920,E,,,280309,,,A*68
$GPGSA,A,3,08,15,28,27,255,,,,,,,,,4.4,2.9,3.3*24
$GPVTG,,T,,M,0.0,N,0.0,K*4E
$GPGSV,3,1,12,02,33,299,31,07,11,074,25,08,48,064,28,15,49,299,30*7D
$GPGSV,3,2,12,17,06,139,23,19,11,035,31,21,03,307,,22,63,133,*7D
$GPGSV,3,3,12,23,42,206,,28,66,115,31,25,63,158,,27,56,271,32*79
$GPGGA,181241.0,4913.854412,N,01634.296890,E,1,05,2.9,314.5,M,,,,*00
$GPRMC,181241.0,A,4913.854412,N,01634.296890,E,,,280309,,,A*6C
$GPGSA,A,3,08,15,17,28,27,,,,,,,,,4.2,2.9,3.0*15
$GPVTG,,T,,M,0.0,N,0.0,K*4E
$GPGSV,3,1,12,02,33,299,31,07,11,074,29,08,48,064,25,15,49,299,30*7C
$GPGSV,3,2,12,17,06,139,23,19,11,035,29,21,03,307,,22,63,133,*74
$GPGSV,3,3,12,23,42,206,,28,66,115,30,25,63,157,,27,56,271,33*76
$GPGGA,181242.0,4913.854414,N,01634.296940,E,1,05,2.8,314.5,M,,,,*08
$GPRMC,181242.0,A,4913.854414,N,01634.296940,E,,,280309,,,A*65
$GPGSA,A,3,08,15,17,28,27,,,,,,,,,4.2,2.8,3.0*14
$GPVTG,,T,,M,0.0,N,0.0,K*4E
$GPGSV,3,1,12,02,33,299,31,07,11,074,31,08,48,064,26,15,49,299,27*70
$GPGSV,3,2,12,17,06,139,23,19,11,035,29,21,03,307,,22,63,133,*74
$GPGSV,3,3,12,23,42,206,,28,66,115,28,25,63,157,,27,56,271,31*7D
$GPGGA,181243.0,4913.854399,N,01634.296950,E,1,05,2.7,314.5,M,,,,*05
$GPRMC,181243.0,A,4913.854399,N,01634.296950,E,,,280309,,,A*67
$GPGSA,A,3,08,15,28,27,255,,,,,,,,,3.9,2.7,2.8*2A
$GPVTG,,T,,M,0.0,N,0.0,K*4E
$GPGSV,3,1,12,02,33,299,31,07,11,074,30,08,48,064,25,15,49,299,27*72
$GPGSV,3,2,12,17,06,139,23,19,11,035,26,21,03,307,,22,63,133,*7B
$GPGSV,3,3,12,23,42,206,,28,66,115,26,25,63,157,,27,56,271,30*72
$GPGGA,181244.0,4913.854414,N,01634.296950,E,1,05,2.5,314.5,M,,,,*02
$GPRMC,181244.0,A,4913.854414,N,01634.296950,E,,,280309,,,A*62
$GPGSA,A,3,08,15,28,27,255,,,,,,,,,3.9,2.5,2.9*29
$GPVTG,,T,,M,0.0,N,0.0,K*4E
$GPGSV,3,1,12,02,33,299,31,07,11,074,31,08,48,064,25,15,49,299,29*7D
$GPGSV,3,2,12,17,06,139,23,19,11,035,27,21,03,307,,22,63,133,*7A
$GPGSV,3,3,12,23,42,206,,28,66,115,30,25,63,157,,27,56,271,32*77
$GPGGA,181245.0,4913.854429,N,01634.296961,E,1,05,2.2,314.5,M,,,,*08
$GPRMC,181245.0,A,4913.854429,N,01634.296961,E,,,280309,,,A*6F
$GPGSA,A,3,08,15,28,27,255,,,,,,,,,2.3,2.2,0.8*26
$GPVTG,,T,,M,0.0,N,0.0,K*4E
$GPGSV,3,1,12,02,33,299,31,07,11,074,29,08,48,064,28,15,49,299,28*78
$GPGSV,3,2,12,17,06,139,23,19,11,035,21,21,03,307,,22,63,133,*7C
$GPGSV,3,3,12,23,42,206,,28,66,115,31,25,63,157,,27,56,271,31*75
$GPGGA,181246.0,4913.854437,N,01634.296890,E,1,05,2.2,314.5,M,,,,*0B
$GPRMC,181246.0,A,4913.854437,N,01634.296890,E,,,280309,,,A*6C
$GPGSA,A,3,08,15,28,27,255,,,,,,,,,2.3,2.2,0.8*26
$GPVTG,,T,,M,0.0,N,0.0,K*4E
$GPGSV,3,1,12,02,33,299,31,07,11,074,29,08,48,064,27,15,49,299,27*78
$GPGSV,3,2,12,17,06,139,21,19,11,035,23,21,03,307,,22,63,133,32*7D
$GPGSV,3,3,12,23,42,206,,28,66,115,30,25,63,157,,27,56,272,30*76
$GPGGA,181247.0,4913.854424,N,01634.296845,E,1,05,2.3,314.5,M,,,,*01
$GPRMC,181247.0,A,4913.854424,N,01634.296845,E,,,280309,,,A*67
$GPGSA,A,3,08,15,17,28,27,,,,,,,,,3.8,2.3,3.1*13
$GPVTG,,T,,M,0.0,N,0.0,K*4E
$GPGSV,3,1,12,02,33,299,31,07,11,074,29,08,48,064,28,15,49,299,28*78
$GPGSV,3,2,12,17,06,139,22,19,11,035,23,21,03,307,,22,63,133,32*7E
$GPGSV,3,3,12,23,42,206,,28,66,115,32,25,63,157,,27,56,272,30*74
$GPGGA,181248.0,4913.854434,N,01634.296754,E,1,05,2.3,314.5,M,,,,*00
$GPRMC,181248.0,A,4913.854434,N,01634.296754,E,,,280309,,,A*66
$GPGSA,A,3,08,15,17,28,27,,,,,,,,,3.9,2.3,3.1*12
$GPVTG,,T,,M,0.0,N,0.0,K*4E
$GPGSV,3,1,12,02,33,299,31,07,11,074,27,08,48,064,29,15,49,299,28*77
$GPGSV,3,2,12,17,06,139,22,19,11,035,25,21,03,307,,22,63,133,32*78
$GPGSV,3,3,12,23,42,206,,28,66,115,32,25,63,157,,27,56,272,31*75
$GPGGA,181249.0,4913.854452,N,01634.296659,E,1,05,2.2,314.5,M,,,,*0C
$GPRMC,181249.0,A,4913.854452,N,01634.296659,E,,,280309,,,A*6B
$GPGSA,A,3,08,15,17,28,27,,,,,,,,,3.8,2.2,3.1*12
$GPVTG,,T,,M,0.0,N,0.0,K*4E
$GPGSV,3,1,12,02,33,299,31,07,11,074,25,08,48,064,26,15,49,299,26*74
$GPGSV,3,2,12,17,06,139,21,19,11,035,24,21,03,307,,22,63,133,32*7A
$GPGSV,3,3,12,23,42,206,,28,66,115,31,25,63,157,,27,56,272,31*76
$GPGGA,181250.0,4913.854467,N,01634.296614,E,1,05,2.3,314.5,M,,,,*0A
$GPRMC,181250.0,A,4913.854467,N,01634.296614,E,,,280309,,,A*6C
$GPGSA,A,3,08,15,17,28,27,,,,,,,,,3.9,2.3,3.2*11
$GPVTG,,T,,M,0.0,N,0.0,K*4E
$GPGSV,3,1,12,02,33,299,31,07,11,074,22,08,48,064,22,15,49,299,28*79
$GPGSV,3,2,12,17,06,139,20,19,11,035,27,21,03,307,,22,63,133,32*78
$GPGSV,3,3,12,23,42,206,,28,66,115,26,25,63,157,,27,56,272,29*79
$GPGGA,181251.0,4913.854464,N,01634.296563,E,1,05,2.5,314.5,M,,,,*0D
$GPRMC,181251.0,A,4913.854464,N,01634.296563,E,,,280309,,,A*6D
$GPGSA,A,3,08,15,17,28,27,,,,,,,,,3.9,2.5,2.9*1D
$GPVTG,,T,,M,0.0,N,0.0,K*4E
$GPGSV,3,1,12,02,33,299,31,07,11,074,22,08,48,064,21,15,49,299,25*77
$GPGSV,3,2,12,17,06,139,21,19,11,035,29,21,03,307,,22,63,133,32*77
$GPGSV,3,3,12,23,42,206,,28,66,115,28,25,63,157,,27,56,272,29*77
$GPGGA,181252.0,4913.854477,N,01634.296488,E,1,05,2.5,315.0,M,,,,*0C
$GPRMC,181252.0,A,4913.854477,N,01634.296488,E,,,280309,,,A*68
$GPGSA,A,3,08,15,17,28,27,,,,,,,,,3.7,2.5,2.7*1D
$GPVTG,,T,,M,0.0,N,0.0,K*4E
$GPGSV,3,1,12,02,33,299,31,07,11,074,22,08,48,064,23,15,49,299,30*71
$GPGSV,3,2,12,17,06,139,21,19,11,035,32,21,03,307,,22,63,133,32*7D
$GPGSV,3,3,12,23,42,206,,28,66,115,28,25,63,157,,27,56,272,31*7E
$GPGGA,181253.0,4913.854464,N,01634.296427,E,1,05,2.5,315.0,M,,,,*0A
$GPRMC,181253.0,A,4913.854464,N,01634.296427,E,,,280309,,,A*6E
$GPGSA,A,3,08,15,28,27,255,,,,,,,,,3.8,2.5,2.9*28
$GPVTG,,T,,M,0.0,N,0.0,K*4E
$GPGSV,3,1,12,02,33,299,31,07,11,074,22,08,48,064,21,15,49,299,25*77
$GPGSV,3,2,12,17,06,139,21,19,11,035,31,21,03,307,,22,63,133,32*7E
$GPGSV,3,3,12,23,42,206,,28,66,115,27,25,63,157,,27,56,272,28*79
$GPGGA,181254.0,4913.854452,N,01634.296382,E,1,05,2.4,315.0,M,,,,*01
$GPRMC,181254.0,A,4913.854452,N,01634.296382,E,,,280309,,,A*64
$GPGSA,A,3,08,15,28,27,255,,,,,,,,,3.7,2.4,2.8*27
$GPVTG,,T,,M,0.0,N,0.0,K*4E
$GPGSV,3,1,12,02,33,299,31,07,11,074,22,08,48,064,21,15,49,299,26*74
$GPGSV,3,2,12,17,06,139,21,19,11,035,29,21,03,307,,22,63,133,32*77
$GPGSV,3,3,12,23,42,206,,28,66,115,27,25,63,157,,27,56,272,29*78
$GPGGA,181255.0,4913.854472,N,01634.296327,E,1,05,2.5,315.0,M,,,,*0C
$GPRMC,181255.0,A,4913.854472,N,01634.296327,E,,,280309,,,A*68
$GPGSA,A,3,08,15,17,28,27,,,,,,,,,3.7,2.5,2.7*1D
$GPVTG,,T,,M,0.0,N,0.0,K*4E
$GPGSV,3,1,12,02,33,299,31,07,11,074,21,08,48,064,21,15,49,299,25*74
$GPGSV,3,2,12,17,06,139,21,19,11,035,29,21,03,307,,22,63,133,32*77
$GPGSV,3,3,12,23,42,206,,28,66,115,27,25,63,157,,27,56,272,29*78
$GPGGA,181256.0,4913.854469,N,01634.296307,E,1,05,2.6,315.0,M,,,,*04
$GPRMC,181256.0,A,4913.854469,N,01634.296307,E,,,280309,,,A*63
$GPGSA,A,3,08,15,28,27,255,,,,,,,,,3.7,2.6,2.7*2A
$GPVTG,,T,,M,0.0,N,0.0,K*4E
$GPGSV,3,1,12,02,33,299,31,07,11,074,24,08,48,064,23,15,49,299,24*72
$GPGSV,3,2,12,17,06,139,21,19,11,035,29,21,03,307,,22,63,133,32*77
$GPGSV,3,3,12,23,42,206,,28,66,115,28,25,63,157,,27,56,272,28*76
$GPGGA,181257.0,4913.854475,N,01634.296287,E,1,05,2.5,315.0,M,,,,*02
$GPRMC,181257.0,A,4913.854475,N,01634.296287,E,,,280309,,,A*66
$GPGSA,A,3,08,15,28,27,255,,,,,,,,,3.8,2.5,2.8*29
$GPVTG,,T,,M,0.0,N,0.0,K*4E
$GPGSV,3,1,12,02,33,299,,07,11,074,26,08,48,064,22,15,49,299,25*72
$GPGSV,3,2,12,17,06,139,21,19,11,035,27,21,03,307,,22,63,133,32*79
$GPGSV,3,3,12,23,42,206,,28,66,115,28,25,63,157,,27,56,272,29*77
$GPGGA,181258.0,4913.865700,N,01634.290141,E,1,05,2.2,312.0,M,,,,*01
$GPRMC,181258.0,A,4913.865700,N,01634.290141,E,2.3,326.9,280309,,,A*6A
$GPGSA,A,3,08,15,28,27,255,,,,,,,,,2.3,2.2,0.8*26
$GPVTG,326.9,T,,M,2.3,N,4.3,K*68
$GPGSV,3,1,12,02,33,299,,07,11,074,26,08,48,064,24,15,49,299,23*72
$GPGSV,3,2,12,17,06,139,21,19,11,035,25,21,03,307,,22,63,133,32*7B
$GPGSV,3,3,12,23,42,206,,28,66,115,27,25,63,157,,27,56,272,26*77
$GPGGA,181259.0,4913.866197,N,01634.289522,E,1,05,2.2,312.0,M,,,,*02
$GPRMC,181259.0,A,4913.866197,N,01634.289522,E,2.4,325.9,280309,,,A*6D
$GPGSA,A,3,08,15,28,27,255,,,,,,,,,2.3,2.2,0.8*26
$GPVTG,325.9,T,,M,2.4,N,4.5,K*6A
$GPGSV,3,1,12,02,33,299,30,07,11,074,29,08,48,064,22,15,49,299,25*7E
$GPGSV,3,2,12,17,06,139,21,19,11,035,24,21,03,307,,22,63,133,32*7A
$GPGSV,3,3,12,23,42,206,,28,66,115,26,25,63,157,,27,56,272,27*77
$GPGGA,181300.0,4913.866715,N,01634.288949,E,1,05,2.2,312.0,M,,,,*03
$GPRMC,181300.0,A,4913.866715,N,01634.288949,E,2.4,328.1,280309,,,A*69
$GPGSA,A,3,08,15,28,27,255,,,,,,,,,2.3,2.2,0.8*26
$GPVTG,328.1,T,,M,2.4,N,4.5,K*6F
$GPGSV,3,1,12,02,33,299,30,07,11,074,30,08,48,064,20,15,49,299,25*74
$GPGSV,3,2,12,17,06,139,20,19,11,035,27,21,03,307,,22,63,133,32*78
$GPGSV,3,3,12,23,42,206,,28,66,115,28,25,63,157,30,27,56,272,29*74
$GPGGA,181301.0,4913.867658,N,01634.288713,E,1,05,2.5,312.5,M,,,,*08
$GPRMC,181301.0,A,4913.867658,N,01634.288713,E,2.7,339.0,280309,,,A*62
$GPGSA,A,3,08,15,17,28,27,,,,,,,,,3.5,2.5,2.5*1D
$GPVTG,339.0,T,,M,2.7,N,5.1,K*68
$GPGSV,3,1,12,02,33,299,30,07,11,074,30,08,48,064,21,15,49,299,24*74
$GPGSV,3,2,12,17,06,139,24,19,11,035,22,21,03,307,,22,63,133,17*7E
$GPGSV,3,3,12,23,42,206,,28,66,115,31,25,63,157,30,27,56,272,30*74
$GPGGA,181302.0,4913.868438,N,01634.288089,E,1,05,2.6,312.0,M,,,,*02
$GPRMC,181302.0,A,4913.868438,N,01634.288089,E,2.8,336.4,280309,,,A*6A
$GPGSA,A,3,08,15,17,28,27,,,,,,,,,3.6,2.6,2.5*1D
$GPVTG,336.4,T,,M,2.8,N,5.2,K*6F
$GPGSV,3,1,12,02,33,299,30,07,11,074,27,08,48,064,20,15,49,299,26*71
$GPGSV,3,2,12,17,06,139,26,19,11,035,24,21,03,307,,22,63,133,17*7A
$GPGSV,3,3,12,23,42,206,,28,66,115,31,25,63,157,30,27,56,272,31*75
$GPGGA,181303.0,4913.868908,N,01634.287159,E,1,05,2.7,312.5,M,,,,*0A
$GPRMC,181303.0,A,4913.868908,N,01634.287159,E,2.6,321.8,280309,,,A*62
$GPGSA,A,3,08,15,17,28,27,,,,,,,,,3.7,2.7,2.5*1D
$GPVTG,321.8,T,,M,2.6,N,4.9,K*61
$GPGSV,3,1,12,02,33,299,30,07,11,074,25,08,48,064,20,15,49,299,29*7C
$GPGSV,3,2,12,17,06,139,26,19,10,035,27,21,03,307,,22,63,133,17*78
$GPGSV,3,3,12,23,42,206,,28,66,115,29,25,63,157,30,27,56,272,29*75
$GPGGA,181304.0,4913.869072,N,01634.286223,E,1,05,2.8,312.5,M,,,,*08
$GPRMC,181304.0,A,4913.869072,N,01634.286223,E,2.4,308.6,280309,,,A*68
$GPGSA,A,3,15,17,28,27,255,,,,,,,,,3.8,2.8,2.5*27
$GPVTG,308.6,T,,M,2.4,N,4.5,K*6A
$GPGSV,3,1,12,02,33,299,30,07,11,074,27,08,48,064,20,15,49,299,26*71
$GPGSV,3,2,12,17,06,139,27,19,10,035,23,21,03,307,,22,63,133,17*7D
$GPGSV,3,3,12,23,42,206,,28,66,115,30,25,63,157,30,27,56,272,27*73
$GPGGA,181305.0,4913.869293,N,01634.285157,E,1,05,3.0,312.5,M,,,,*0E
$GPRMC,181305.0,A,4913.869293,N,01634.285157,E,2.4,299.5,280309,,,A*6D
$GPGSA,A,3,15,17,28,27,255,,,,,,,,,3.8,3.0,2.4*2F
$GPVTG,299.5,T,,M,2.4,N,4.4,K*61
$GPGSV,3,1,12,02,33,299,30,07,11,074,25,08,48,064,20,15,49,299,27*72
$GPGSV,3,2,12,17,06,139,28,19,10,035,21,21,03,307,,22,63,133,17*70
$GPGSV,3,3,12,23,42,206,,28,66,115,29,25,63,157,30,27,56,272,29*75
$GPGGA,181306.0,4913.869645,N,01634.284121,E,1,05,4.9,312.5,M,,,,*0C
$GPRMC,181306.0,A,4913.869645,N,01634.284121,E,2.4,297.2,280309,,,A*68
$GPGSA,A,3,15,17,28,27,255,,,,,,,,,5.8,4.9,3.0*22
$GPVTG,297.2,T,,M,2.4,N,4.4,K*68
$GPGSV,3,1,12,02,33,299,30,07,11,074,28,08,48,064,22,15,49,299,25*7F
$GPGSV,3,2,12,17,06,139,26,19,10,035,22,21,03,307,,22,63,133,17*7D
$GPGSV,3,3,12,23,42,206,,28,66,115,30,25,63,157,30,27,56,272,29*7D
$GPGGA,181307.0,4913.870047,N,01634.283342,E,1,05,2.8,312.5,M,,,,*06
$GPRMC,181307.0,A,4913.870047,N,01634.283342,E,2.4,306.3,280309,,,A*6D
$GPGSA,A,3,08,15,17,28,27,,,,,,,,,3.7,2.8,2.3*14
$GPVTG,306.3,T,,M,2.4,N,4.4,K*60
$GPGSV,3,1,12,02,33,299,30,07,11,074,31,08,48,064,26,15,49,299,26*70
$GPGSV,3,2,12,17,06,139,23,19,10,035,24,21,03,307,,22,63,133,17*7E
$GPGSV,3,3,12,23,42,206,,28,66,115,31,25,63,157,30,27,56,272,30*74
$GPGGA,181308.0,4913.870067,N,01634.282255,E,1,05,2.6,313.0,M,,,,*07
$GPRMC,181308.0,A,4913.870067,N,01634.282255,E,2.1,302.1,280309,,,A*65
$GPGSA,A,3,08,15,17,28,27,,,,,,,,,3.6,2.6,2.5*1D
$GPVTG,302.1,T,,M,2.1,N,3.8,K*68
$GPGSV,3,1,12,02,33,299,30,07,11,074,28,08,48,064,27,15,49,299,31*7F
$GPGSV,3,2,12,17,06,139,23,19,10,035,25,21,03,307,,22,63,133,17*7F
$GPGSV,3,3,12,23,42,206,,28,66,115,28,25,63,157,30,27,56,272,31*7D
$GPGGA,181309.0,4913.870256,N,01634.281395,E,1,05,2.3,313.0,M,,,,*0D
$GPRMC,181309.0,A,4913.870256,N,01634.281395,E,2.0,299.6,280309,,,A*6F
$GPGSA,A,3,08,15,17,28,27,,,,,,,,,3.5,2.3,2.6*18
$GPVTG,299.6,T,,M,2.0,N,3.7,K*62
$GPGSV,3,1,12,02,33,299,30,07,11,074,28,08,48,064,27,15,49,299,28*77
$GPGSV,3,2,12,17,06,139,23,19,10,035,29,21,03,307,,22,63,133,17*73
$GPGSV,3,3,12,23,42,206,,28,66,115,25,25,63,157,30,27,56,272,32*73
$GPGGA,181310.0,4913.870435,N,01634.280561,E,1,05,2.2,313.0,M,,,,*0B
$GPRMC,181310.0,A,4913.870435,N,01634.280561,E,1.9,300.7,280309,,,A*62
$GPGSA,A,3,08,15,28,27,255,,,,,,,,,3.7,2.2,2.9*20
$GPVTG,300.7,T,,M,1.9,N,3.4,K*6B
$GPGSV,3,1,12,02,33,299,30,07,11,074,30,08,48,064,28,15,49,299,29*70
$GPGSV,3,2,12,17,06,139,21,19,10,035,29,21,03,307,,22,63,133,17*71
$GPGSV,3,3,12,23,42,206,,28,66,115,29,25,63,157,30,27,56,272,33*7E
$GPGGA,181311.0,4913.870175,N,01634.279364,E,1,05,2.2,313.0,M,,,,*0E
$GPRMC,181311.0,A,4913.870175,N,01634.279364,E,1.8,295.7,280309,,,A*6B
$GPGSA,A,3,08,15,17,28,27,,,,,,,,,3.8,2.2,3.1*12
$GPVTG,295.7,T,,M,1.8,N,3.3,K*60
$GPGSV,3,1,12,02,33,299,30,07,11,074,29,08,48,064,31,15,49,299,30*78
$GPGSV,3,2,12,17,06,139,21,19,10,035,26,21,03,307,,22,63,133,17*7E
$GPGSV,3,3,12,23,42,206,,28,66,115,32,25,63,157,30,27,56,272,35*72
$GPGGA,181312.0,4913.870037,N,01634.278106,E,1,05,2.2,313.0,M,,,,*0D
$GPRMC,181312.0,A,4913.870037,N,01634.278106,E,1.9,303.7,280309,,,A*67
$GPGSA,A,3,08,15,17,28,27,,,,,,,,,3.9,2.2,3.2*10
$GPVTG,303.7,T,,M,1.9,N,3.6,K*6A
$GPGSV,3,1,12,02,33,299,30,07,11,074,29,08,48,064,30,15,49,299,29*71
$GPGSV,3,2,12,17,06,139,22,19,10,035,21,21,03,307,,22,63,133,17*7A
$GPGSV,3,3,12,23,42,206,,28,66,115,33,25,63,157,30,27,56,272,34*72
$GPGGA,181313.0,4913.870372,N,01634.277206,E,1,05,2.2,313.5,M,,,,*07
$GPRMC,181313.0,A,4913.870372,N,01634.277206,E,2.0,306.7,280309,,,A*67
$GPGSA,A,3,08,15,17,28,27,,,,,,,,,4.0,2.2,3.3*1F
$GPVTG,306.7,T,,M,2.0,N,3.8,K*6B
$GPGSV,3,1,12,02,33,299,30,07,11,074,27,08,48,064,29,15,49,299,29*77
$GPGSV,3,2,12,17,06,139,23,19,10,035,25,21,03,307,,22,63,133,17*7F
$GPGSV,3,3,12,23,42,206,,28,66,115,33,25,63,157,30,27,56,272,35*73
$GPGGA,181314.0,4913.870540,N,01634.276220,E,1,05,2.2,313.0,M,,,,*07
$GPRMC,181314.0,A,4913.870540,N,01634.276220,E,1.9,312.5,280309,,,A*6F
$GPGSA,A,3,08,15,17,28,27,,,,,,,,,4.1,2.2,3.4*19
$GPVTG,312.5,T,,M,1.9,N,3.6,K*68
$GPGSV,3,1,12,02,33,299,30,07,11,074,27,08,48,064,29,15,49,299,30*7F
$GPGSV,3,2,12,17,06,139,22,19,10,035,25,21,03,307,,22,63,133,17*7E
$GPGSV,3,3,12,23,42,206,,28,66,115,33,25,63,157,30,27,56,272,36*70
$GPGGA,181315.0,4913.870937,N,01634.275265,E,1,05,2.3,313.5,M,,,,*0C
$GPRMC,181315.0,A,4913.870937,N,01634.275265,E,2.1,316.2,280309,,,A*68
$GPGSA,A,3,08,15,17,28,27,,,,,,,,,4.2,2.3,3.5*1A
$GPVTG,316.2,T,,M,2.1,N,3.8,K*6E
$GPGSV,3,1,12,02,33,299,30,07,11,074,29,08,48,064,29,15,49,299,28*78
$GPGSV,3,2,12,17,06,139,24,19,10,035,23,21,03,307,,22,63,133,17*7E
$GPGSV,3,3,12,23,42,206,,28,66,115,32,25,63,157,30,27,56,272,34*73
$GPGGA,181316.0,4913.871242,N,01634.274485,E,1,05,2.3,313.5,M,,,,*0E
$GPRMC,181316.0,A,4913.871242,N,01634.274485,E,2.1,313.9,280309,,,A*64
$GPGSA,A,3,08,15,17,28,27,,,,,,,,,4.1,2.3,3.4*18
$GPVTG,313.9,T,,M,2.1,N,4.0,K*6F
$GPGSV,3,1,12,02,33,299,30,07,11,074,28,08,48,064,27,15,49,299,30*7E
$GPGSV,3,2,12,17,06,139,22,19,10,035,23,21,03,307,,22,63,133,17*78
$GPGSV,3,3,12,23,42,206,,28,66,115,32,25,63,157,30,27,56,272,34*73
$GPGGA,181317.0,4913.871762,N,01634.273857,E,1,05,2.3,313.5,M,,,,*0C
$GPRMC,181317.0,A,4913.871762,N,01634.273857,E,1.9,314.4,280309,,,A*67
$GPGSA,A,3,08,15,17,28,27,,,,,,,,,4.1,2.3,3.4*18
$GPVTG,314.4,T,,M,1.9,N,3.5,K*6C
$GPGSV,3,1,12,02,33,299,30,07,11,074,27,08,48,064,24,15,49,299,29*7A
$GPGSV,3,2,12,17,06,139,24,19,10,035,23,21,03,307,,22,63,133,17*7E
$GPGSV,3,3,12,23,42,206,,28,66,115,33,25,63,157,30,27,56,272,34*72
$GPGGA,181318.0,4913.872165,N,01634.273268,E,1,05,2.7,313.5,M,,,,*03
$GPRMC,181318.0,A,4913.872165,N,01634.273268,E,2.0,312.6,280309,,,A*62
$GPGSA,A,3,08,15,17,28,27,,,,,,,,,4.3,2.7,3.2*18
$GPVTG,312.6,T,,M,2.0,N,3.7,K*60
$GPGSV,3,1,12,02,33,299,30,07,11,074,26,08,48,064,21,15,49,299,28*7F
$GPGSV,3,2,12,17,06,139,26,19,10,035,21,21,03,307,,22,63,133,17*7E
$GPGSV,3,3,12,23,42,206,,28,66,113,33,25,63,157,30,27,56,272,33*73
$GPGGA,181319.0,4913.872788,N,01634.272730,E,1,05,3.2,313.5,M,,,,*0A
$GPRMC,181319.0,A,4913.872788,N,01634.272730,E,2.4,333.7,280309,,,A*69
$GPGSA,A,3,08,15,17,28,27,,,,,,,,,4.4,3.2,3.0*19
$GPVTG,333.7,T,,M,2.4,N,4.5,K*63
$GPGSV,3,1,12,02,33,299,30,07,11,074,25,08,48,064,22,15,49,299,27*70
$GPGSV,3,2,12,17,06,139,25,19,10,035,21,21,03,307,,22,63,133,17*7D
$GPGSV,3,3,12,23,42,206,,28,66,113,34,25,63,157,30,27,56,272,32*75
$GPGGA,181320.0,4913.873183,N,01634.272006,E,1,05,3.4,313.0,M,,,,*0D
$GPRMC,181320.0,A,4913.873183,N,01634.272006,E,2.0,326.5,280309,,,A*6F
$GPGSA,A,3,08,15,17,28,27,,,,,,,,,4.5,3.4,2.9*16
$GPVTG,326.5,T,,M,2.0,N,3.7,K*64
$GPGSV,3,1,12,02,33,299,,07,11,074,24,08,48,064,23,15,49,299,27*73
$GPGSV,3,2,12,17,06,139,28,19,10,035,22,21,03,306,,22,63,133,17*72
$GPGSV,3,3,12,23,42,206,,28,66,113,32,25,63,157,30,27,56,272,32*73
$GPGGA,181321.0,4913.873651,N,01634.271347,E,1,05,3.5,313.5,M,,,,*05
$GPRMC,181321.0,A,4913.873651,N,01634.271347,E,2.0,319.9,280309,,,A*63
$GPGSA,A,3,08,15,17,28,27,,,,,,,,,4.5,3.5,2.9*17
$GPVTG,319.9,T,,M,2.0,N,3.7,K*64
$GPGSV,3,1,12,02,33,299,,07,11,074,22,08,48,064,23,15,49,299,28*7A
$GPGSV,3,2,12,17,06,139,24,19,10,035,21,21,03,306,,22,63,133,*7B
$GPGSV,3,3,12,23,42,206,,28,66,113,31,25,63,157,,27,56,272,31*70
$GPGGA,181322.0,4913.874106,N,01634.270769,E,1,05,3.3,314.0,M,,,,*09
$GPRMC,181322.0,A,4913.874106,N,01634.270769,E,1.8,312.3,280309,,,A*61
$GPGSA,A,3,15,17,28,27,255,,,,,,,,,4.3,3.3,2.7*23
$GPVTG,312.3,T,,M,1.8,N,3.3,K*6A
$GPGSV,3,1,12,02,33,299,,07,11,074,25,08,48,064,22,15,49,299,33*76
$GPGSV,3,2,12,17,06,139,21,19,10,035,22,21,03,306,,22,63,133,*7D
$GPGSV,3,3,12,23,42,206,,28,66,113,30,25,63,157,,27,56,272,33*73
$GPGGA,181323.0,4913.874335,N,01634.270040,E,1,05,2.9,314.0,M,,,,*0D
$GPRMC,181323.0,A,4913.874335,N,01634.270040,E,1.5,299.6,280309,,,A*64
$GPGSA,A,3,08,15,17,28,27,,,,,,,,,4.3,2.9,3.2*16
$GPVTG,299.6,T,,M,1.5,N,2.8,K*6A
$GPGSV,3,1,12,02,33,299,,07,11,074,26,08,48,064,23,15,49,299,32*75
$GPGSV,3,2,12,17,06,139,21,19,10,035,25,21,03,306,,22,63,133,*7A
$GPGSV,3,3,12,23,42,206,,28,66,113,30,25,63,157,,27,56,272,33*73
$GPGGA,181324.0,4913.874848,N,01634.269481,E,1,05,2.8,313.5,M,,,,*09
$GPRMC,181324.0,A,4913.874848,N,01634.269481,E,1.6,304.0,280309,,,A*63
$GPGSA,A,3,08,15,28,27,255,,,,,,,,,4.3,2.8,3.3*22
$GPVTG,304.0,T,,M,1.6,N,3.0,K*63
$GPGSV,3,1,12,02,33,299,,07,11,074,25,08,48,064,23,15,49,299,32*76
$GPGSV,3,2,12,17,06,139,21,19,10,035,24,21,03,306,,22,63,133,*7B
$GPGSV,3,3,12,23,42,206,,28,66,113,29,25,63,157,,27,56,272,33*7B
$GPGGA,181325.0,4913.875185,N,01634.268918,E,1,05,2.8,313.0,M,,,,*08
$GPRMC,181325.0,A,4913.875185,N,01634.268918,E,1.8,307.1,280309,,,A*6B
$GPGSA,A,3,15,28,27,255,255,,,,,,,,,4.5,2.8,3.5*18
$GPVTG,307.1,T,,M,1.8,N,3.4,K*6B
$GPGSV,3,1,12,02,33,299,,07,11,074,26,08,48,064,23,15,49,299,32*75
$GPGSV,3,2,12,17,06,139,21,19,10,035,24,21,03,306,,22,63,133,*7B
$GPGSV,3,3,12,23,42,206,,28,66,113,30,25,63,157,,27,56,272,33*73
$GPGGA,181326.0,4913.875564,N,01634.268315,E,1,05,2.2,313.0,M,,,,*0D
$GPRMC,181326.0,A,4913.875564,N,01634.268315,E,1.6,310.5,280309,,,A*68
$GPGSA,A,3,15,28,27,255,255,,,,,,,,,2.3,2.2,0.8*1C
$GPVTG,310.5,T,,M,1.6,N,3.0,K*63
$GPGSV,3,1,12,02,33,299,,07,11,074,25,08,48,064,25,15,49,299,29*7A
$GPGSV,3,2,12,17,06,139,21,19,10,035,21,21,03,306,,22,63,133,*7E
$GPGSV,3,3,12,23,42,206,,28,66,113,30,25,63,157,,27,56,272,31*71
$GPGGA,181327.0,4913.875682,N,01634.267570,E,1,05,2.4,313.0,M,,,,*0B
$GPRMC,181327.0,A,4913.875682,N,01634.267570,E,1.5,303.7,280309,,,A*6B
$GPGSA,A,3,08,15,17,28,27,,,,,,,,,4.3,2.4,3.5*1C
$GPVTG,303.7,T,,M,1.5,N,2.8,K*69
$GPGSV,3,1,12,02,33,299,,07,11,074,25,08,48,064,26,15,49,299,30*71
$GPGSV,3,2,12,17,06,139,21,19,10,035,22,21,03,306,,22,63,133,*7D
$GPGSV,3,3,12,23,42,206,,28,66,113,30,25,63,157,,27,56,272,33*73
$GPGGA,181328.0,4913.875964,N,01634.266967,E,1,05,2.4,313.0,M,,,,*08
$GPRMC,181328.0,A,4913.875964,N,01634.266967,E,1.6,309.8,280309,,,A*6E
$GPGSA,A,3,08,15,28,27,255,,,,,,,,,4.4,2.4,3.7*2D
$GPVTG,309.8,T,,M,1.6,N,3.0,K*66
$GPGSV,3,1,12,02,33,299,,07,11,074,26,08,48,064,25,15,49,299,33*72
$GPGSV,3,2,12,17,07,139,21,19,10,035,21,21,03,306,,22,63,133,*7F
$GPGSV,3,3,12,23,42,206,,28,66,113,28,25,63,157,,27,56,272,35*7C
$GPGGA,181329.0,4913.876180,N,01634.266268,E,1,05,2.4,313.0,M,,,,*0C
$GPRMC,181329.0,A,4913.876180,N,01634.266268,E,1.6,305.4,280309,,,A*6A
$GPGSA,A,3,08,15,28,27,255,,,,,,,,,4.7,2.4,4.0*2E
$GPVTG,305.4,T,,M,1.6,N,3.0,K*66
$GPGSV,3,1,12,02,33,299,,07,11,074,24,08,48,064,25,15,49,299,33*70
$GPGSV,3,2,12,17,07,139,22,19,10,035,21,21,03,306,,22,63,133,*7C
$GPGSV,3,3,12,23,42,206,,28,66,113,29,25,63,157,,27,56,272,36*7E
$GPGGA,181330.0,4913.876361,N,01634.265594,E,1,05,2.5,312.0,M,,,,*0E
$GPRMC,181330.0,A,4913.876361,N,01634.265594,E,1.3,305.5,280309,,,A*6C
$GPGSA,A,3,08,15,17,28,27,,,,,,,,,4.3,2.5,3.5*1D
$GPVTG,305.5,T,,M,1.3,N,2.4,K*67
$GPGSV,3,1,12,02,33,299,,07,11,074,27,08,48,064,23,15,49,299,32*74
$GPGSV,3,2,12,17,07,139,20,19,10,035,21,21,03,306,,22,63,133,*7E
$GPGSV,3,3,12,23,42,206,,28,66,113,30,25,63,157,,27,56,272,36*76
$GPGGA,181331.0,4913.876769,N,01634.265086,E,1,05,2.6,312.0,M,,,,*06
$GPRMC,181331.0,A,4913.876769,N,01634.265086,E,1.6,311.9,280309,,,A*6B
$GPGSA,A,3,08,15,17,28,27,,,,,,,,,4.7,2.6,3.9*16
$GPVTG,311.9,T,,M,1.6,N,2.9,K*66
$GPGSV,3,1,12,02,33,299,,07,11,074,25,08,48,064,27,15,49,299,32*72
$GPGSV,3,2,12,17,07,139,20,19,10,035,21,21,03,306,,22,63,133,*7E
$GPGSV,3,3,12,23,42,206,,28,66,113,30,25,63,157,,27,56,272,36*76
$GPGGA,181332.0,4913.876980,N,01634.264417,E,1,05,2.7,312.0,M,,,,*00
$GPRMC,181332.0,A,4913.876980,N,01634.264417,E,1.6,306.7,280309,,,A*64
$GPGSA,A,3,08,15,28,27,255,,,,,,,,,5.0,2.7,4.2*29
$GPVTG,306.7,T,,M,1.6,N,2.9,K*6E
$GPGSV,3,1,12,02,33,299,,07,11,074,25,08,48,064,28,15,49,299,29*77
$GPGSV,3,2,12,17,07,139,20,19,10,035,21,21,03,306,,22,63,133,*7E
$GPGSV,3,3,12,23,42,206,,28,66,113,28,25,63,157,,27,56,272,33*7A
$GPGGA,181333.0,4913.877179,N,01634.263743,E,1,05,2.4,312.0,M,,,,*08
$GPRMC,181333.0,A,4913.877179,N,01634.263743,E,1.6,304.3,280309,,,A*69
$GPGSA,A,3,08,15,28,27,255,,,,,,,,,4.7,2.4,4.0*2E
$GPVTG,304.3,T,,M,1.6,N,2.9,K*68
$GPGSV,3,1,12,02,33,299,,07,11,074,23,08,48,064,26,15,49,299,29*7F
$GPGSV,3,2,12,17,07,139,20,19,10,035,21,21,03,306,,22,63,133,*7E
$GPGSV,3,3,12,23,42,206,,28,66,113,29,25,63,157,,27,56,272,34*7C
$GPGGA,181334.0,4913.877350,N,01634.263124,E,1,05,2.4,312.0,M,,,,*01
$GPRMC,181334.0,A,4913.877350,N,01634.263124,E,1.5,306.9,280309,,,A*6B
$GPGSA,A,3,08,15,17,28,27,,,,,,,,,4.5,2.4,3.8*17
$GPVTG,306.9,T,,M,1.5,N,2.7,K*6D
$GPGSV,3,1,12,02,33,299,,07,11,074,23,08,48,064,26,15,49,299,28*7E
$GPGSV,3,2,12,17,07,139,22,19,10,035,21,21,03,306,,22,63,133,*7C
$GPGSV,3,3,12,23,42,206,,28,66,113,31,25,63,157,,27,56,272,35*74
$GPGGA,181335.0,4913.877722,N,01634.262481,E,1,05,2.5,312.5,M,,,,*0E
$GPRMC,181335.0,A,4913.877722,N,01634.262481,E,1.7,308.5,280309,,,A*60
$GPGSA,A,3,08,15,17,28,27,,,,,,,,,4.5,2.5,3.7*19
$GPVTG,308.5,T,,M,1.7,N,3.1,K*6A
$GPGSV,3,1,12,02,33,299,,07,11,074,21,08,48,064,25,15,49,299,32*74
$GPGSV,3,2,12,17,07,139,22,19,10,035,21,21,03,306,,22,63,133,*7C
$GPGSV,3,3,12,23,42,206,,28,66,113,32,25,63,157,,27,57,272,36*75
$GPGGA,181336.0,4913.878051,N,01634.261777,E,1,05,2.5,312.5,M,,,,*08
$GPRMC,181336.0,A,4913.878051,N,01634.261777,E,1.7,304.2,280309,,,A*6D
$GPGSA,A,3,08,15,17,28,27,,,,,,,,,4.6,2.5,3.8*15
$GPVTG,304.2,T,,M,1.7,N,3.1,K*61
$GPGSV,3,1,12,02,33,299,,07,11,074,22,08,48,064,28,15,49,299,31*79
$GPGSV,3,2,12,17,07,139,24,19,10,035,21,21,03,306,,22,63,133,*7A
$GPGSV,3,3,12,23,42,206,,28,66,113,33,25,63,157,,27,57,272,36*74
$GPGGA,181337.0,4913.878360,N,01634.261032,E,1,05,2.5,312.5,M,,,,*0E
$GPRMC,181337.0,A,4913.878360,N,01634.261032,E,1.8,308.8,280309,,,A*62
$GPGSA,A,3,08,15,17,28,27,,,,,,,,,4.6,2.5,3.8*15
$GPVTG,308.8,T,,M,1.8,N,3.2,K*6B
$GPGSV,3,1,12,02,33,299,,07,11,074,24,08,48,064,24,15,49,299,33*71
$GPGSV,3,2,12,17,07,139,23,19,10,035,21,21,03,306,,22,64,132,*7B
$GPGSV,3,3,12,23,42,206,,28,66,113,32,25,63,157,,27,57,272,31*72
$GPGGA,181338.0,4913.878755,N,01634.260308,E,1,05,2.6,312.5,M,,,,*0B
$GPRMC,181338.0,A,4913.878755,N,01634.260308,E,1.6,303.7,280309,,,A*6E
$GPGSA,A,3,08,15,17,28,27,,,,,,,,,4.2,2.6,3.2*18
$GPVTG,303.7,T,,M,1.6,N,3.0,K*63
$GPGSV,3,1,12,02,33,299,,07,11,074,22,08,48,064,33,15,49,299,32*70
$GPGSV,3,2,12,17,07,139,22,19,10,035,21,21,03,306,,22,64,132,*7A
$GPGSV,3,3,12,23,42,206,,28,66,113,33,25,63,157,,27,57,272,35*77
$GPGGA,181339.0,4913.878871,N,01634.259614,E,1,05,2.6,312.5,M,,,,*01
$GPRMC,181339.0,A,4913.878871,N,01634.259614,E,1.8,301.1,280309,,,A*6E
$GPGSA,A,3,08,15,17,28,27,,,,,,,,,4.4,2.6,3.5*19
$GPVTG,301.1,T,,M,1.8,N,3.4,K*6D
$GPGSV,3,1,12,02,33,299,,07,11,074,23,08,48,064,33,15,49,299,33*70
$GPGSV,3,2,12,17,07,139,25,19,10,035,21,21,03,306,,22,64,132,*7D
$GPGSV,3,3,12,23,42,206,,28,66,113,34,25,63,157,,27,57,272,31*74
$GPGGA,181340.0,4913.879344,N,01634.258885,E,1,05,2.4,312.5,M,,,,*06
$GPRMC,181340.0,A,4913.879344,N,01634.258885,E,1.7,302.9,280309,,,A*6F
$GPGSA,A,3,08,15,17,28,27,,,,,,,,,4.0,2.4,3.2*18
$GPVTG,302.9,T,,M,1.7,N,3.1,K*6C
$GPGSV,3,1,12,02,33,299,,07,11,074,23,08,48,064,32,15,49,299,29*7A
$GPGSV,3,2,12,17,07,139,24,19,10,035,21,21,03,306,,22,64,132,*7C
$GPGSV,3,3,12,23,42,206,,28,66,113,33,25,63,157,,27,57,272,32*70
$GPGGA,181341.0,4913.879678,N,01634.258241,E,1,05,2.2,313.0,M,,,,*0D
$GPRMC,181341.0,A,4913.879678,N,01634.258241,E,1.6,308.2,280309,,,A*66
$GPGSA,A,3,08,15,17,28,27,,,,,,,,,3.8,2.2,3.0*13
$GPVTG,308.2,T,,M,1.6,N,2.9,K*65
$GPGSV,3,1,12,02,33,299,,07,11,074,24,08,48,064,28,15,49,299,30*7E
$GPGSV,3,2,12,17,07,139,25,19,10,035,18,21,03,306,,22,64,132,*77
$GPGSV,3,3,12,23,42,206,,28,66,113,32,25,63,157,,27,57,272,29*7B
$GPGGA,181342.0,4913.880028,N,01634.257602,E,1,05,2.1,312.5,M,,,,*00
$GPRMC,181342.0,A,4913.880028,N,01634.257602,E,1.9,316.9,280309,,,A*67
$GPGSA,A,3,08,15,17,28,27,,,,,,,,,3.5,2.1,2.8*14
$GPVTG,316.9,T,,M,1.9,N,3.5,K*63
$GPGSV,3,1,12,02,33,299,,07,10,074,23,08,48,064,24,15,49,299,31*75
$GPGSV,3,2,12,17,07,139,24,19,10,035,18,21,03,306,,22,64,132,*76
$GPGSV,3,3,12,23,42,206,,28,66,113,28,25,63,157,,27,57,272,30*78
$GPGGA,181343.0,4913.880510,N,01634.257049,E,1,05,2.3,312.5,M,,,,*04
$GPRMC,181343.0,A,4913.880510,N,01634.257049,E,2.1,321.3,280309,,,A*64
$GPGSA,A,3,08,15,17,28,27,,,,,,,,,3.6,2.3,2.7*1A
$GPVTG,321.3,T,,M,2.1,N,3.9,K*6A
$GPGSV,3,1,12,02,33,299,,07,10,074,22,08,48,064,23,15,49,299,33*71
$GPGSV,3,2,12,17,07,139,26,19,10,035,16,21,03,306,,22,64,132,*7A
$GPGSV,3,3,12,23,42,206,,28,66,113,28,25,63,157,,27,57,272,33*7B
$GPGGA,181344.0,4913.881184,N,01634.256421,E,1,05,2.5,313.0,M,,,,*02
$GPRMC,181344.0,A,4913.881184,N,01634.256421,E,2.1,320.6,280309,,,A*64
$GPGSA,A,3,08,15,17,28,27,,,,,,,,,3.7,2.5,2.7*1D
$GPVTG,320.6,T,,M,2.1,N,4.0,K*60
$GPGSV,3,1,12,02,33,299,,07,10,074,21,08,48,064,23,15,49,299,31*70
$GPGSV,3,2,12,17,07,139,25,19,10,035,18,21,03,306,,22,64,132,*77
$GPGSV,3,3,12,23,42,206,,28,66,113,29,25,63,157,,27,57,272,29*71
$GPGGA,181345.0,4913.881647,N,01634.255752,E,1,05,2.5,313.0,M,,,,*0F
$GPRMC,181345.0,A,4913.881647,N,01634.255752,E,2.0,316.2,280309,,,A*69
$GPGSA,A,3,08,15,17,28,27,,,,,,,,,3.6,2.5,2.6*1D
$GPVTG,316.2,T,,M,2.0,N,3.7,K*60
$GPGSV,3,1,12,02,33,299,,07,10,074,21,08,48,064,22,15,49,299,29*78
$GPGSV,3,2,12,17,07,139,22,19,10,035,18,21,03,306,,22,64,132,*70
$GPGSV,3,3,12,23,42,206,,28,66,113,29,25,63,157,,27,57,272,28*70
$GPGGA,181346.0,4913.882082,N,01634.255058,E,1,05,2.7,313.0,M,,,,*0F
$GPRMC,181346.0,A,4913.882082,N,01634.255058,E,1.9,309.4,280309,,,A*69
$GPGSA,A,3,08,15,17,28,27,,,,,,,,,3.8,2.7,2.6*11
$GPVTG,309.4,T,,M,1.9,N,3.6,K*63
$GPGSV,3,1,12,02,33,299,,07,10,074,22,08,48,064,22,15,49,299,30*73
$GPGSV,3,2,12,17,07,139,22,19,10,035,18,21,03,306,,22,64,132,*70
$GPGSV,3,3,12,23,42,206,,28,66,113,28,25,63,157,,27,57,272,30*78
$GPGGA,181347.0,4913.882442,N,01634.254369,E,1,05,2.7,312.5,M,,,,*02
$GPRMC,181347.0,A,4913.882442,N,01634.254369,E,2.1,309.8,280309,,,A*67
$GPGSA,A,3,15,28,27,255,255,,,,,,,,,3.8,2.7,2.7*1E
$GPVTG,309.8,T,,M,2.1,N,3.9,K*6B
$GPGSV,3,1,12,02,33,299,,07,10,074,23,08,48,064,20,15,49,299,34*74
$GPGSV,3,2,12,17,07,139,22,19,10,035,18,21,03,306,,22,64,132,*70
$GPGSV,3,3,12,23,42,206,,28,66,113,28,25,63,157,19,27,57,272,33*73
$GPGGA,181348.0,4913.882819,N,01634.253554,E,1,05,2.7,312.5,M,,,,*00
$GPRMC,181348.0,A,4913.882819,N,01634.253554,E,2.2,306.3,280309,,,A*62
$GPGSA,A,3,08,15,28,27,255,,,,,,,,,4.0,2.7,2.9*25
$GPVTG,306.3,T,,M,2.2,N,4.1,K*63
$GPGSV,3,1,12,02,33,299,30,07,10,074,24,08,48,064,20,15,49,299,30*74
$GPGSV,3,2,12,17,07,139,22,19,10,035,18,21,03,306,,22,64,132,31*72
$GPGSV,3,3,12,23,42,206,,28,66,113,28,25,63,157,19,27,57,272,32*72
$GPGGA,181349.0,4913.883206,N,01634.252709,E,1,05,2.2,312.5,M,,,,*0A
$GPRMC,181349.0,A,4913.883206,N,01634.252709,E,2.2,307.5,280309,,,A*6A
$GPGSA,A,3,15,28,27,255,255,,,,,,,,,2.3,2.2,0.8*1C
$GPVTG,307.5,T,,M,2.2,N,4.2,K*67
$GPGSV,3,1,12,02,33,299,30,07,10,074,25,08,48,064,27,15,49,299,29*7A
$GPGSV,3,2,12,17,07,139,21,19,10,035,18,21,03,306,,22,64,132,31*71
$GPGSV,3,3,12,23,42,206,,28,66,113,30,25,63,157,,27,57,272,30*71
$GPGGA,181350.0,4913.883779,N,01634.251904,E,1,05,2.6,312.5,M,,,,*0B
$GPRMC,181350.0,A,4913.883779,N,01634.251904,E,2.3,312.4,280309,,,A*6B
$GPGSA,A,3,08,15,17,28,27,,,,,,,,,3.9,2.6,2.9*1E
$GPVTG,312.4,T,,M,2.3,N,4.3,K*62
$GPGSV,3,1,12,02,33,299,30,07,10,074,23,08,48,064,31,15,49,299,27*75
$GPGSV,3,2,12,17,07,139,23,19,10,035,18,21,03,306,,22,64,132,31*73
$GPGSV,3,3,12,23,43,206,,28,66,113,33,25,63,157,,27,57,272,30*73
$GPGGA,181351.0,4913.884219,N,01634.250954,E,1,05,2.5,312.5,M,,,,*09
$GPRMC,181351.0,A,4913.884219,N,01634.250954,E,2.2,315.5,280309,,,A*6D
$GPGSA,A,3,08,15,17,28,27,,,,,,,,,3.8,2.5,2.8*1D
$GPVTG,315.5,T,,M,2.2,N,4.1,K*67
$GPGSV,3,1,12,02,33,299,30,07,10,074,27,08,48,064,28,15,49,299,36*79
$GPGSV,3,2,12,17,07,139,23,19,10,035,18,21,03,306,,22,64,132,31*73
$GPGSV,3,3,12,23,43,206,,28,66,113,32,25,63,157,,27,57,272,30*72
$GPGGA,181352.0,4913.884755,N,01634.250240,E,1,05,2.4,312.5,M,,,,*08
$GPRMC,181352.0,A,4913.884755,N,01634.250240,E,1.8,307.6,280309,,,A*64
$GPGSA,A,3,08,15,17,28,27,,,,,,,,,3.8,2.4,2.8*1C
$GPVTG,307.6,T,,M,1.8,N,3.3,K*6B
$GPGSV,3,1,12,02,33,299,30,07,10,074,29,08,48,064,30,15,49,299,30*78
$GPGSV,3,2,12,17,07,139,23,19,10,035,18,21,03,306,,22,64,132,31*73
$GPGSV,3,3,12,23,43,206,,28,66,113,32,25,63,157,,27,57,272,31*73
$GPGGA,181353.0,4913.885089,N,01634.249460,E,1,05,2.4,313.0,M,,,,*06
$GPRMC,181353.0,A,4913.885089,N,01634.249460,E,1.9,311.3,280309,,,A*6D
$GPGSA,A,3,08,15,17,28,27,,,,,,,,,3.7,2.4,2.9*12
$GPVTG,311.3,T,,M,1.9,N,3.6,K*6D
$GPGSV,3,1,12,02,33,299,30,07,10,074,27,08,48,064,30,15,49,299,30*76
$GPGSV,3,2,12,17,07,139,25,19,10,035,18,21,03,306,,22,64,132,31*75
$GPGSV,3,3,12,23,43,206,,28,66,113,31,25,63,157,,27,57,272,30*71
$GPGGA,181354.0,4913.885366,N,01634.248721,E,1,05,2.3,313.0,M,,,,*03
$GPRMC,181354.0,A,4913.885366,N,01634.248721,E,1.9,304.4,280309,,,A*6C
$GPGSA,A,3,08,15,17,28,27,,,,,,,,,3.6,2.3,2.8*15
$GPVTG,304.4,T,,M,1.9,N,3.6,K*6E
$GPGSV,3,1,12,02,33,299,30,07,10,074,27,08,48,064,31,15,49,299,30*77
$GPGSV,3,2,12,17,07,139,24,19,10,035,18,21,03,306,19,22,64,132,31*7C
$GPGSV,3,3,12,23,43,206,,28,66,113,32,25,63,157,,27,57,272,28*7B
$GPGGA,181340.0,4913.885590,N,01634.247926,E,1,05,2.2,313.0,M,,,,*0E
$GPRMC,181340.0,A,4913.885590,N,01634.247926,E,1.7,294.4,280309,,,A*66
$GPGSA,A,3,08,15,17,28,27,,,,,,,,,3.5,2.2,2.7*18
$GPVTG,294.4,T,,M,1.7,N,3.2,K*6C
$GPGSV,3,1,12,02,33,299,30,07,10,074,28,08,48,064,30,15,49,299,28*70
$GPGSV,3,2,12,17,07,139,24,19,10,035,18,21,03,306,19,22,64,132,31*7C
$GPGSV,3,3,12,23,43,206,,28,66,113,31,25,63,157,,27,57,272,31*70
$GPGGA,181341.0,4913.885793,N,01634.247107,E,1,05,2.1,313.0,M,,,,*06
$GPRMC,181341.0,A,4913.885793,N,01634.247107,E,1.9,297.4,280309,,,A*60
$GPGSA,A,3,08,15,17,28,27,,,,,,,,,3.4,2.1,2.7*1A
$GPVTG,297.4,T,,M,1.9,N,3.5,K*66
$GPGSV,3,1,12,02,33,299,30,07,10,074,27,08,48,064,32,15,49,299,27*72
$GPGSV,3,2,12,17,07,139,24,19,10,035,18,21,03,306,19,22,64,132,31*7C
$GPGSV,3,3,12,23,43,206,,28,66,113,30,25,63,157,,27,57,272,32*72
$GPGGA,181342.0,4913.885892,N,01634.246377,E,1,05,2.0,313.5,M,,,,*0B
$GPRMC,181342.0,A,4913.885892,N,01634.246377,E,1.3,296.6,280309,,,A*60
$GPGSA,A,3,08,15,17,28,27,,,,,,,,,3.4,2.0,2.7*1B
$GPVTG,296.6,T,,M,1.3,N,2.3,K*68
$GPGSV,3,1,12,02,33,299,30,07,10,074,28,08,48,064,30,15,49,299,27*7F
$GPGSV,3,2,12,17,07,139,23,19,10,035,18,21,03,306,19,22,64,132,31*7B
$GPGSV,3,3,12,23,43,206,,28,66,113,31,25,63,157,,27,57,272,31*70
$GPGGA,181343.0,4913.886030,N,01634.245769,E,1,05,2.0,314.0,M,,,,*03
$GPRMC,181343.0,A,4913.886030,N,01634.245769,E,1.4,284.3,280309,,,A*6B
$GPGSA,A,3,08,15,17,28,27,,,,,,,,,3.5,2.0,2.9*14
$GPVTG,284.3,T,,M,1.4,N,2.7,K*6D
$GPGSV,3,1,12,02,33,299,30,07,10,074,28,08,48,064,28,15,49,299,28*79
$GPGSV,3,2,12,17,07,139,25,19,10,035,18,21,03,306,19,22,64,132,31*7D
$GPGSV,3,3,12,23,43,206,,28,66,113,31,25,63,157,,27,57,272,30*71
$GPGGA,181344.0,4913.886296,N,01634.245140,E,1,05,2.1,314.0,M,,,,*06
$GPRMC,181344.0,A,4913.886296,N,01634.245140,E,1.7,291.6,280309,,,A*6D
$GPGSA,A,3,08,15,17,28,27,,,,,,,,,3.5,2.1,2.8*14
$GPVTG,291.6,T,,M,1.7,N,3.1,K*68
$GPGSV,3,1,12,02,33,299,30,07,10,074,26,08,48,064,24,15,49,299,28*7B
$GPGSV,3,2,12,17,07,139,22,19,10,035,18,21,02,306,19,22,64,132,31*7B
$GPGSV,3,3,12,23,43,206,,28,66,113,30,25,63,157,,27,57,272,31*71
$GPGGA,181345.0,4913.886616,N,01634.244446,E,1,05,2.5,313.5,M,,,,*0F
$GPRMC,181345.0,A,4913.886616,N,01634.244446,E,1.7,305.9,280309,,,A*61
$GPGSA,A,3,08,15,17,28,27,,,,,,,,,3.9,2.5,3.0*15
$GPVTG,305.9,T,,M,1.7,N,3.2,K*68
$GPGSV,3,1,12,02,33,299,30,07,10,074,27,08,48,064,23,15,49,299,29*7C
$GPGSV,3,2,12,17,07,139,21,19,10,035,18,21,02,306,19,22,64,132,31*78
$GPGSV,3,3,12,23,43,206,,28,66,113,31,25,63,157,,27,57,272,30*71
$GPGGA,181346.0,4913.887114,N,01634.243823,E,1,05,2.8,313.5,M,,,,*0D
$GPRMC,181346.0,A,4913.887114,N,01634.243823,E,2.0,312.0,280309,,,A*65
$GPGSA,A,3,08,15,17,28,27,,,,,,,,,4.3,2.8,3.3*16
$GPVTG,312.0,T,,M,2.0,N,3.8,K*69
$GPGSV,3,1,12,02,33,299,30,07,10,074,29,08,48,064,23,15,49,299,26*7D
$GPGSV,3,2,12,17,07,139,25,19,10,035,18,21,02,306,19,22,64,132,31*7C
$GPGSV,3,3,12,23,43,206,,28,66,113,32,25,63,157,,27,57,272,32*70
$GPGGA,181347.0,4913.887549,N,01634.243124,E,1,05,2.8,313.5,M,,,,*0E
$GPRMC,181347.0,A,4913.887549,N,01634.243124,E,2.2,316.1,280309,,,A*61
$GPGSA,A,3,08,15,17,28,27,,,,,,,,,4.2,2.8,3.1*15
$GPVTG,316.1,T,,M,2.2,N,4.0,K*61
$GPGSV,3,1,12,02,33,299,30,07,10,074,27,08,48,064,24,15,49,299,30*73
$GPGSV,3,2,12,17,07,139,26,19,10,035,18,21,02,306,,22,64,132,31*77
$GPGSV,3,3,12,23,43,206,,28,66,113,33,25,63,157,,27,57,272,32*71
$GPGGA,181348.0,4913.887979,N,01634.242550,E,1,05,2.8,313.5,M,,,,*08
$GPRMC,181348.0,A,4913.887979,N,01634.242550,E,2.3,322.8,280309,,,A*68
$GPGSA,A,3,08,15,17,28,27,,,,,,,,,4.1,2.8,3.0*17
$GPVTG,322.8,T,,M,2.3,N,4.3,K*6D
$GPGSV,3,1,12,02,33,299,30,07,10,074,22,08,48,064,24,15,49,299,27*70
$GPGSV,3,2,12,17,07,139,24,19,10,035,18,21,02,306,,22,64,132,31*75
$GPGSV,3,3,12,23,43,206,,28,66,113,34,25,63,157,17,27,57,272,34*76
$GPGGA,181349.0,4913.888504,N,01634.241821,E,1,05,2.9,313.5,M,,,,*09
$GPRMC,181349.0,A,4913.888504,N,01634.241821,E,2.2,316.1,280309,,,A*67
$GPGSA,A,3,08,15,17,28,27,,,,,,,,,4.2,2.9,3.0*15
$GPVTG,316.1,T,,M,2.2,N,4.1,K*60
$GPGSV,3,1,12,02,33,299,30,07,10,074,23,08,48,064,25,15,49,299,29*7E
$GPGSV,3,2,12,17,07,139,24,19,10,035,18,21,02,306,,22,64,132,31*75
$GPGSV,3,3,12,23,43,206,,28,66,113,33,25,63,157,17,27,57,272,33*76
$GPGGA,181350.0,4913.888984,N,01634.241092,E,1,05,2.9,313.5,M,,,,*05
$GPRMC,181350.0,A,4913.888984,N,01634.241092,E,2.2,317.2,280309,,,A*69
$GPGSA,A,3,08,15,17,28,27,,,,,,,,,4.2,2.9,3.0*15
$GPVTG,317.2,T,,M,2.2,N,4.1,K*62
$GPGSV,3,1,12,02,33,299,30,07,10,074,22,08,48,064,30,15,49,299,31*72
$GPGSV,3,2,12,17,07,139,24,19,10,035,32,21,02,306,,22,64,132,31*7D
$GPGSV,3,3,12,23,43,206,,28,66,113,33,25,63,157,17,27,57,272,32*77
$GPGGA,181351.0,4913.889284,N,01634.240403,E,1,05,2.7,313.5,M,,,,*0D
$GPRMC,181351.0,A,4913.889284,N,01634.240403,E,2.1,321.3,280309,,,A*68
$GPGSA,A,3,08,15,28,27,255,,,,,,,,,4.1,2.7,3.0*2C
$GPVTG,321.3,T,,M,2.1,N,3.9,K*6A
$GPGSV,3,1,12,02,33,299,30,07,10,074,27,08,48,064,27,15,49,299,31*71
$GPGSV,3,2,12,17,07,139,23,19,10,035,32,21,02,306,,22,64,132,19*70
$GPGSV,3,3,12,23,43,206,,28,66,113,29,25,63,157,,27,57,272,34*7C
$GPGGA,181352.0,4913.889777,N,01634.239744,E,1,05,2.4,313.5,M,,,,*0A
$GPRMC,181352.0,A,4913.889777,N,01634.239744,E,1.9,320.6,280309,,,A*63
$GPGSA,A,3,08,15,17,28,27,,,,,,,,,3.9,2.4,3.0*14
$GPVTG,320.6,T,,M,1.9,N,3.6,K*6A
$GPGSV,3,1,12,02,33,299,30,07,10,074,20,08,48,064,25,15,49,299,29*7D
$GPGSV,3,2,12,17,07,139,23,19,10,035,32,21,02,306,,22,64,132,19*70
$GPGSV,3,3,12,23,43,206,,28,66,113,25,25,63,157,,27,57,272,31*75
$GPGGA,181353.0,4913.890244,N,01634.239156,E,1,05,2.3,313.5,M,,,,*04
$GPRMC,181353.0,A,4913.890244,N,01634.239156,E,2.0,325.4,280309,,,A*67
$GPGSA,A,3,08,15,28,27,255,,,,,,,,,4.0,2.3,3.2*2B
$GPVTG,325.4,T,,M,2.0,N,3.7,K*66
$GPGSV,3,1,12,02,33,299,,07,10,074,23,08,48,064,25,15,49,299,29*7D
$GPGSV,3,2,12,17,07,139,23,19,10,035,32,21,02,306,,22,64,132,19*70
$GPGSV,3,3,12,23,43,206,,28,66,113,27,25,63,157,,27,57,272,30*76
$GPGGA,181354.0,4913.890720,N,01634.238663,E,1,05,2.3,313.5,M,,,,*04
$GPRMC,181354.0,A,4913.890720,N,01634.238663,E,2.0,326.5,280309,,,A*65
$GPGSA,A,3,08,15,28,27,255,,,,,,,,,3.9,2.3,3.1*26
$GPVTG,326.5,T,,M,2.0,N,3.7,K*64
$GPGSV,3,1,12,02,33,299,,07,10,074,26,08,48,064,21,15,49,299,28*7D
$GPGSV,3,2,12,17,07,139,23,19,10,035,32,21,02,306,,22,64,132,19*70
$GPGSV,3,3,12,23,43,206,,28,66,113,28,25,63,157,,27,57,272,30*79
$GPGGA,181355.0,4913.891202,N,01634.238215,E,1,05,2.2,313.5,M,,,,*05
$GPRMC,181355.0,A,4913.891202,N,01634.238215,E,1.9,325.1,280309,,,A*68
$GPGSA,A,3,08,15,28,27,255,,,,,,,,,2.4,2.2,0.8*21
$GPVTG,325.1,T,,M,1.9,N,3.6,K*68
$GPGSV,3,1,12,02,33,299,,07,10,074,23,08,47,064,25,15,49,299,28*73
$GPGSV,3,2,12,17,07,139,23,19,10,035,32,21,02,306,,22,64,132,19*70
$GPGSV,3,3,12,23,43,206,,28,66,113,29,25,63,157,,27,57,272,32*7A
$GPGGA,181356.0,4913.891668,N,01634.237662,E,1,05,2.2,313.5,M,,,,*05
$GPRMC,181356.0,A,4913.891668,N,01634.237662,E,1.9,324.4,280309,,,A*6C
$GPGSA,A,3,08,15,28,27,255,,,,,,,,,2.4,2.2,0.8*21
$GPVTG,324.4,T,,M,1.9,N,3.6,K*6C
$GPGSV,3,1,12,02,33,299,,07,10,074,23,08,47,064,25,15,49,299,29*72
$GPGSV,3,2,12,17,07,139,23,19,10,035,32,21,02,306,,22,64,132,19*70
$GPGSV,3,3,12,23,43,206,,28,66,113,27,25,63,157,19,27,57,272,32*7C
$GPGGA,181357.0,4913.892060,N,01634.237154,E,1,05,2.2,313.5,M,,,,*0B
$GPRMC,181357.0,A,4913.892060,N,01634.237154,E,1.9,321.5,280309,,,A*66
$GPGSA,A,3,15,28,27,255,255,,,,,,,,,2.4,2.2,0.8*1B
$GPVTG,321.5,T,,M,1.9,N,3.4,K*6A
$GPGSV,3,1,12,02,33,299,,07,10,074,22,08,47,064,21,15,49,299,27*79
$GPGSV,3,2,12,17,07,139,23,19,10,035,32,21,02,306,,22,64,132,19*70
$GPGSV,3,3,12,23,43,206,,28,66,113,25,25,63,157,19,27,57,272,32*7E
$GPGGA,181358.0,4913.892248,N,01634.236470,E,1,05,2.2,313.5,M,,,,*0E
$GPRMC,181358.0,A,4913.892248,N,01634.236470,E,1.7,316.4,280309,,,A*68
$GPGSA,A,3,08,15,28,27,255,,,,,,,,,2.4,2.2,0.8*21
$GPVTG,316.4,T,,M,1.7,N,3.2,K*67
$GPGSV,3,1,12,02,33,299,,07,10,074,23,08,47,064,21,15,49,299,27*78
$GPGSV,3,2,12,17,07,139,18,19,10,035,32,21,02,306,19,22,64,132,19*70
$GPGSV,3,3,12,23,43,206,,28,66,113,27,25,63,157,19,27,57,272,31*7F
$GPGGA,181359.0,4913.892598,N,01634.235882,E,1,04,2.2,313.5,M,,,,*06
$GPRMC,181359.0,A,4913.892598,N,01634.235882,E,1.8,314.3,280309,,,A*6B
$GPGSA,A,3,15,28,27,255,,,,,,,,,,2.4,2.2,0.8*29
$GPVTG,314.3,T,,M,1.8,N,3.3,K*6C
$GPGSV,3,1,12,02,33,299,,07,10,074,21,08,47,064,19,15,49,299,28*7E
$GPGSV,3,2,12,17,07,139,18,19,10,035,32,21,02,306,19,22,64,132,19*70
$GPGSV,3,3,12,23,43,206,,28,66,113,28,25,63,157,19,27,57,272,34*75
$GPGGA,181400.0,4913.892983,N,01634.235308,E,1,04,2.2,313.5,M,,,,*02
$GPRMC,181400.0,A,4913.892983,N,01634.235308,E,1.9,314.4,280309,,,A*69
$GPGSA,A,3,08,15,28,27,,,,,,,,,,2.4,2.2,0.8*13
$GPVTG,314.4,T,,M,1.9,N,3.5,K*6C
$GPGSV,3,1,12,02,33,299,,07,10,074,21,08,47,064,20,15,49,299,27*7B
$GPGSV,3,2,12,17,07,139,22,19,10,035,32,21,02,306,19,22,64,132,19*79
$GPGSV,3,3,12,23,43,206,,28,66,113,29,25,63,157,19,27,57,272,31*71
$GPGGA,181401.0,4913.893244,N,01634.234644,E,1,05,2.8,313.5,M,,,,*05
$GPRMC,181401.0,A,4913.893244,N,01634.234644,E,1.6,304.0,280309,,,A*6F
$GPGSA,A,3,08,15,17,28,27,,,,,,,,,4.3,2.8,3.3*16
$GPVTG,304.0,T,,M,1.6,N,3.0,K*63
$GPGSV,3,1,12,02,33,299,,07,10,074,19,08,47,064,20,15,49,299,27*70
$GPGSV,3,2,12,17,07,139,20,19,10,035,32,21,02,306,19,22,64,132,19*7B
$GPGSV,3,3,12,23,43,206,,28,66,113,28,25,63,157,19,27,57,272,31*70
$GPGGA,181402.0,4913.893511,N,01634.234011,E,1,05,2.8,313.5,M,,,,*07
$GPRMC,181402.0,A,4913.893511,N,01634.234011,E,1.7,299.7,280309,,,A*6E
$GPGSA,A,3,08,15,17,28,27,,,,,,,,,4.3,2.8,3.3*16
$GPVTG,299.7,T,,M,1.7,N,3.1,K*61
$GPGSV,3,1,12,02,33,299,,07,10,074,21,08,47,064,20,15,49,299,28*74
$GPGSV,3,2,12,17,07,139,21,19,10,035,32,21,02,306,19,22,64,132,19*7A
$GPGSV,3,3,12,23,43,206,,28,66,113,27,25,63,157,,27,57,272,31*77
$GPGGA,181403.0,4913.893805,N,01634.233327,E,1,05,2.8,314.0,M,,,,*0D
$GPRMC,181403.0,A,4913.893805,N,01634.233327,E,1.6,300.3,280309,,,A*62
$GPGSA,A,3,08,15,17,28,27,,,,,,,,,4.3,2.8,3.3*16
$GPVTG,300.3,T,,M,1.6,N,3.1,K*65
$GPGSV,3,1,12,02,33,299,,07,10,074,21,08,47,064,20,15,49,299,28*74
$GPGSV,3,2,12,17,07,139,21,19,10,035,32,21,02,306,19,22,64,132,19*7A
$GPGSV,3,3,12,23,43,206,,28,66,113,27,25,63,157,19,27,57,272,31*7F
$GPGGA,181404.0,4913.894041,N,01634.232643,E,1,05,2.8,313.5,M,,,,*01
$GPRMC,181404.0,A,4913.894041,N,01634.232643,E,1.7,297.0,280309,,,A*61
$GPGSA,A,3,15,28,27,255,255,,,,,,,,,4.4,2.8,3.4*18
$GPVTG,297.0,T,,M,1.7,N,3.1,K*68
$GPGSV,3,1,12,02,33,299,,07,10,074,22,08,47,064,22,15,49,299,29*74
$GPGSV,3,2,12,17,07,139,21,19,10,035,32,21,02,306,19,22,64,132,19*7A
$GPGSV,3,3,12,23,43,206,,28,66,113,27,25,63,157,17,27,57,272,32*72
$GPGGA,181405.0,4913.894418,N,01634.232145,E,1,05,2.8,313.5,M,,,,*09
$GPRMC,181405.0,A,4913.894418,N,01634.232145,E,1.6,305.2,280309,,,A*60
$GPGSA,A,3,08,15,28,27,255,,,,,,,,,4.6,2.8,3.6*22
$GPVTG,305.2,T,,M,1.6,N,3.0,K*60
$GPGSV,3,1,12,02,33,299,,07,10,074,23,08,47,064,22,15,49,299,29*75
$GPGSV,3,2,12,17,07,139,21,19,10,035,32,21,02,306,19,22,64,132,19*7A
$GPGSV,3,3,12,23,43,206,,28,66,113,28,25,63,157,17,27,57,272,31*7E
$GPGGA,181406.0,4913.894582,N,01634.231396,E,1,05,2.2,313.5,M,,,,*0D
$GPRMC,181406.0,A,4913.894582,N,01634.231396,E,1.7,299.2,280309,,,A*6B
$GPGSA,A,3,08,15,28,27,255,,,,,,,,,2.4,2.2,0.8*21
$GPVTG,299.2,T,,M,1.7,N,3.1,K*64
$GPGSV,3,1,12,02,33,299,,07,10,074,23,08,47,064,24,15,49,299,29*73
$GPGSV,3,2,12,17,07,139,21,19,10,035,32,21,02,306,18,22,64,132,19*7B
$GPGSV,3,3,12,23,43,206,,28,66,113,28,25,63,157,17,27,57,272,33*7C
$GPGGA,181407.0,4913.894831,N,01634.230762,E,1,05,2.2,313.5,M,,,,*07
$GPRMC,181407.0,A,4913.894831,N,01634.230762,E,1.6,303.7,280309,,,A*67
$GPGSA,A,3,08,15,28,27,255,,,,,,,,,2.4,2.2,0.8*21
$GPVTG,303.7,T,,M,1.6,N,3.0,K*63
$GPGSV,3,1,12,02,33,299,,07,10,074,24,08,47,064,24,15,49,299,27*7A
$GPGSV,3,2,12,17,07,139,21,19,10,035,32,21,02,306,18,22,64,132,19*7B
$GPGSV,3,3,12,23,43,206,21,28,66,113,29,25,63,157,17,27,57,272,31*7C
$GPGGA,181408.0,4913.895201,N,01634.230184,E,1,05,2.2,313.5,M,,,,*0E
$GPRMC,181408.0,A,4913.895201,N,01634.230184,E,1.8,305.0,280309,,,A*61
$GPGSA,A,3,08,15,28,27,255,,,,,,,,,2.4,2.2,0.8*21
$GPVTG,305.0,T,,M,1.8,N,3.4,K*68
$GPGSV,3,1,12,02,33,299,,07,10,074,24,08,47,064,25,15,49,299,31*7C
$GPGSV,3,2,12,17,07,139,21,19,10,035,32,21,02,306,18,22,64,132,19*7B
$GPGSV,3,3,12,23,43,206,21,28,66,113,29,25,63,157,17,27,57,272,34*79
$GPGGA,181409.0,4913.895633,N,01634.229661,E,1,05,2.2,313.5,M,,,,*0E
$GPRMC,181409.0,A,4913.895633,N,01634.229661,E,1.6,305.2,280309,,,A*6D
$GPGSA,A,3,08,15,28,27,255,,,,,,,,,2.4,2.2,0.8*21
$GPVTG,305.2,T,,M,1.6,N,3.0,K*60
$GPGSV,3,1,12,02,33,299,,07,10,074,23,08,47,064,23,15,49,299,29*74
$GPGSV,3,2,12,17,07,139,21,19,10,035,32,21,02,306,18,22,64,132,19*7B
$GPGSV,3,3,12,23,43,206,21,28,66,113,28,25,63,157,17,27,57,272,31*7D
$GPGGA,181410.0,4913.896028,N,01634.229022,E,1,04,2.2,313.5,M,,,,*09
$GPRMC,181410.0,A,4913.896028,N,01634.229022,E,1.7,313.6,280309,,,A*69
$GPGSA,A,3,08,15,28,27,,,,,,,,,,2.4,2.2,0.8*13
$GPVTG,313.6,T,,M,1.7,N,3.1,K*63
$GPGSV,3,1,12,02,33,299,,07,10,074,21,08,47,064,21,15,49,299,33*7F
$GPGSV,3,2,12,17,07,139,21,19,10,035,32,21,02,306,18,22,64,132,19*7B
$GPGSV,3,3,12,23,43,206,21,28,66,113,28,25,63,157,17,27,57,272,34*78
$GPGGA,181411.0,4913.896395,N,01634.228509,E,1,04,2.2,313.5,M,,,,*00
$GPRMC,181411.0,A,4913.896395,N,01634.228509,E,1.6,316.5,280309,,,A*67
$GPGSA,A,3,08,15,28,27,,,,,,,,,,2.4,2.2,0.8*13
$GPVTG,316.5,T,,M,1.6,N,3.0,K*65
$GPGSV,3,1,12,02,33,299,,07,10,074,20,08,47,064,23,15,49,299,28*76
$GPGSV,3,2,12,17,07,139,20,19,10,035,32,21,02,306,18,22,64,132,*72
$GPGSV,3,3,12,23,43,206,21,28,66,113,28,25,63,157,17,27,57,272,33*7F
$GPGGA,181412.0,4913.896812,N,01634.228011,E,1,05,2.8,313.5,M,,,,*00
$GPRMC,181412.0,A,4913.896812,N,01634.228011,E,1.6,320.3,280309,,,A*6F
$GPGSA,A,3,08,15,17,28,27,,,,,,,,,4.6,2.8,3.7*17
$GPVTG,320.3,T,,M,1.6,N,2.9,K*6E
$GPGSV,3,1,12,02,33,299,,07,10,074,20,08,47,064,23,15,49,299,30*7F
$GPGSV,3,2,12,17,07,139,20,19,10,035,32,21,02,306,18,22,64,132,*72
$GPGSV,3,3,12,23,43,206,21,28,66,113,29,25,63,157,,27,57,272,33*78
$GPGGA,181413.0,4913.897353,N,01634.227357,E,1,05,2.8,313.5,M,,,,*00
$GPRMC,181413.0,A,4913.897353,N,01634.227357,E,1.7,319.3,280309,,,A*64
$GPGSA,A,3,15,17,28,27,255,,,,,,,,,4.7,2.8,3.7*2C
$GPVTG,319.3,T,,M,1.7,N,3.1,K*6C
$GPGSV,3,1,12,02,33,299,,07,10,074,18,08,47,064,24,15,49,299,27*75
$GPGSV,3,2,12,17,07,139,20,19,10,035,32,21,02,306,18,22,64,132,*72
$GPGSV,3,3,12,23,43,206,,28,66,113,29,25,63,157,19,27,57,272,30*70
$GPGGA,181414.0,4913.897652,N,01634.226759,E,1,05,2.6,313.0,M,,,,*03
$GPRMC,181414.0,A,4913.897652,N,01634.226759,E,1.8,312.3,280309,,,A*68
$GPGSA,A,3,08,15,28,27,255,,,,,,,,,4.3,2.6,3.4*2B
$GPVTG,312.3,T,,M,1.8,N,3.3,K*6A
$GPGSV,3,1,12,02,33,299,,07,10,074,20,08,47,064,23,15,49,299,29*77
$GPGSV,3,2,12,17,07,139,20,19,10,035,32,21,02,306,18,22,64,132,*72
$GPGSV,3,3,12,23,43,206,18,28,66,113,29,25,63,157,19,27,57,272,32*7B
$GPGGA,181415.0,4913.898050,N,01634.226226,E,1,05,2.7,313.5,M,,,,*00
$GPRMC,181415.0,A,4913.898050,N,01634.226226,E,1.9,316.3,280309,,,A*6A
$GPGSA,A,3,08,15,28,27,255,,,,,,,,,4.6,2.7,3.7*2C
$GPVTG,316.3,T,,M,1.9,N,3.5,K*69
$GPGSV,3,1,12,02,33,299,,07,10,074,21,08,47,064,24,15,49,299,27*7F
$GPGSV,3,2,12,17,07,139,20,19,10,035,32,21,02,306,18,22,64,132,*72
$GPGSV,3,3,12,23,43,206,18,28,66,113,29,25,63,157,19,27,57,272,30*79
$GPGGA,181416.0,4913.898434,N,01634.225587,E,1,05,2.2,313.0,M,,,,*0A
$GPRMC,181416.0,A,4913.898434,N,01634.225587,E,1.9,314.4,280309,,,A*65
$GPGSA,A,3,08,15,28,27,255,,,,,,,,,2.4,2.2,0.8*21
$GPVTG,314.4,T,,M,1.9,N,3.5,K*6C
$GPGSV,3,1,12,02,33,299,,07,10,074,21,08,47,064,26,15,49,299,29*73
$GPGSV,3,2,12,17,07,139,20,19,61,295,,21,02,306,18,22,64,132,*7D
$GPGSV,3,3,12,23,43,206,18,28,66,112,29,25,63,157,19,27,57,272,33*7B
$GPGGA,181417.0,4913.898736,N,01634.224958,E,1,05,2.2,313.0,M,,,,*05
$GPRMC,181417.0,A,4913.898736,N,01634.224958,E,1.8,311.7,280309,,,A*6D
$GPGSA,A,3,08,15,28,27,255,,,,,,,,,2.4,2.2,0.8*21
$GPVTG,311.7,T,,M,1.8,N,3.4,K*6A
$GPGSV,3,1,12,02,33,299,,07,10,074,20,08,47,064,23,15,49,299,28*76
$GPGSV,3,2,12,17,07,139,20,19,61,295,,21,02,306,18,22,64,132,*7D
$GPGSV,3,3,12,23,43,206,,28,66,112,30,25,63,157,19,27,57,272,30*79
$GPGGA,181418.0,4913.899048,N,01634.224159,E,1,05,2.5,313.0,M,,,,*0B
$GPRMC,181418.0,A,4913.899048,N,01634.224159,E,1.7,306.7,280309,,,A*6D
$GPGSA,A,3,08,15,17,28,27,,,,,,,,,4.2,2.5,3.3*1A
$GPVTG,306.7,T,,M,1.7,N,3.2,K*65
$GPGSV,3,1,12,02,33,299,,07,10,074,21,08,47,064,23,15,49,299,28*77
$GPGSV,3,2,12,17,07,139,20,19,61,295,,21,02,306,18,22,64,132,*7D
$GPGSV,3,3,12,23,43,206,18,28,66,112,29,25,63,157,19,27,57,272,32*7A
$GPGGA,181419.0,4913.899317,N,01634.223585,E,1,05,2.6,313.0,M,,,,*02
$GPRMC,181419.0,A,4913.899317,N,01634.223585,E,1.6,307.3,280309,,,A*63
$GPGSA,A,3,15,28,27,255,255,,,,,,,,,4.3,2.6,3.4*11
$GPVTG,307.3,T,,M,1.6,N,2.9,K*6B
$GPGSV,3,1,12,02,33,299,,07,10,074,22,08,47,064,23,15,49,299,27*7B
$GPGSV,3,2,12,17,07,139,20,19,61,295,,21,02,306,18,22,64,132,*7D
$GPGSV,3,3,12,23,43,206,18,28,66,112,28,25,63,157,19,27,57,272,31*78
$GPGGA,181420.0,4913.899679,N,01634.223012,E,1,05,2.6,313.0,M,,,,*0E
$GPRMC,181420.0,A,4913.899679,N,01634.223012,E,1.7,305.9,280309,,,A*66
$GPGSA,A,3,15,28,27,255,255,,,,,,,,,4.4,2.6,3.5*17
$GPVTG,305.9,T,,M,1.7,N,3.2,K*68
$GPGSV,3,1,12,02,33,299,,07,10,074,23,08,47,064,23,15,49,299,27*7A
$GPGSV,3,2,12,17,07,139,20,19,61,295,,21,02,306,18,22,64,132,*7D
$GPGSV,3,3,12,23,43,206,18,28,66,112,29,25,63,157,19,27,57,272,32*7A
$GPGGA,181421.0,4913.900071,N,01634.222449,E,1,05,5.7,313.0,M,,,,*0D
$GPRMC,181421.0,A,4913.900071,N,01634.222449,E,1.8,311.7,280309,,,A*67
$GPGSA,A,3,15,28,27,255,255,,,,,,,,,5.8,5.7,1.0*1B
$GPVTG,311.7,T,,M,1.8,N,3.4,K*6A
$GPGSV,3,1,12,02,33,299,,07,10,074,23,08,47,064,23,15,49,299,27*7A
$GPGSV,3,2,12,17,07,139,20,19,61,295,,21,02,306,18,22,64,132,*7D
$GPGSV,3,3,12,23,43,206,18,28,66,112,29,25,63,157,19,27,57,272,32*7A
$GPGGA,181422.0,4913.900489,N,01634.221720,E,1,05,5.7,313.0,M,,,,*02
$GPRMC,181422.0,A,4913.900489,N,01634.221720,E,1.7,310.2,280309,,,A*63
$GPGSA,A,3,15,28,27,255,255,,,,,,,,,5.8,5.7,1.0*1B
$GPVTG,310.2,T,,M,1.7,N,3.2,K*67
$GPGSV,3,1,12,02,33,299,,07,10,074,21,08,47,064,23,15,49,299,25*7A
$GPGSV,3,2,12,17,07,139,20,19,61,295,,21,02,306,18,22,64,132,*7D
$GPGSV,3,3,12,23,43,206,18,28,66,112,30,25,63,157,19,27,57,272,32*72
$GPGGA,181423.0,4913.900552,N,01634.220985,E,1,05,5.7,313.0,M,,,,*04
$GPRMC,181423.0,A,4913.900552,N,01634.220985,E,1.6,294.7,280309,,,A*6C
$GPGSA,A,3,15,28,27,255,255,,,,,,,,,5.8,5.7,1.0*1B
$GPVTG,294.7,T,,M,1.6,N,3.0,K*6C
$GPGSV,3,1,12,02,33,299,,07,10,074,21,08,47,064,21,15,49,299,26*7B
$GPGSV,3,2,12,17,07,139,20,19,61,295,,21,02,306,18,22,64,132,*7D
$GPGSV,3,3,12,23,43,206,18,28,66,112,30,25,63,157,19,27,57,272,31*71
$GPGGA,181424.0,4913.900803,N,01634.220261,E,1,05,2.2,312.5,M,,,,*0D
$GPRMC,181424.0,A,4913.900803,N,01634.220261,E,1.6,294.7,280309,,,A*63
$GPGSA,A,3,08,15,28,27,255,,,,,,,,,2.4,2.2,0.8*21
$GPVTG,294.7,T,,M,1.6,N,3.0,K*6C
$GPGSV,3,1,12,02,33,299,,07,10,074,21,08,47,064,23,15,49,299,27*78
$GPGSV,3,2,12,17,07,139,20,19,61,295,,21,02,306,18,22,64,132,*7D
$GPGSV,3,3,12,23,43,206,18,28,66,112,29,25,63,157,19,27,57,272,29*70
$GPGGA,181425.0,4913.901376,N,01634.219708,E,1,04,2.2,312.5,M,,,,*05
$GPRMC,181425.0,A,4913.901376,N,01634.219708,E,1.8,309.7,280309,,,A*61
$GPGSA,A,3,08,15,28,27,,,,,,,,,,2.4,2.2,0.8*13
$GPVTG,309.7,T,,M,1.8,N,3.4,K*63
$GPGSV,3,1,12,02,33,299,,07,10,074,21,08,47,064,28,15,49,299,27*73
$GPGSV,3,2,12,17,07,139,20,19,61,295,,21,02,306,18,22,64,132,*7D
$GPGSV,3,3,12,23,43,206,18,28,66,112,32,25,63,157,,27,57,272,31*7B
$GPGGA,181426.0,4913.901942,N,01634.219160,E,1,04,2.2,312.5,M,,,,*03
$GPRMC,181426.0,A,4913.901942,N,01634.219160,E,1.8,320.3,280309,,,A*68
$GPGSA,A,3,08,15,28,27,,,,,,,,,,2.4,2.2,0.8*13
$GPVTG,320.3,T,,M,1.8,N,3.4,K*6C
$GPGSV,3,1,12,02,33,299,,07,10,074,22,08,47,064,26,15,49,299,27*7E
$GPGSV,3,2,12,17,07,139,26,19,61,295,,21,02,306,18,22,64,132,*7B
$GPGSV,3,3,12,23,43,206,,28,66,112,32,25,63,157,19,27,57,272,28*72
$GPGGA,181427.0,4913.902812,N,01634.218521,E,1,05,2.6,314.0,M,,,,*03
$GPRMC,181427.0,A,4913.902812,N,01634.218521,E,2.2,322.8,280309,,,A*6E
$GPGSA,A,3,08,15,17,28,27,,,,,,,,,3.5,2.6,2.3*18
$GPVTG,322.8,T,,M,2.2,N,4.0,K*6F
$GPGSV,3,1,12,02,33,299,,07,10,074,22,08,47,064,24,15,49,299,27*7C
$GPGSV,3,2,12,17,07,139,26,19,61,295,,21,02,306,18,22,64,132,*7B
$GPGSV,3,3,12,23,43,206,17,28,66,112,31,25,63,157,19,27,57,272,31*7F
$GPGGA,181428.0,4913.903964,N,01634.217832,E,1,05,2.7,316.0,M,,,,*0E
$GPRMC,181428.0,A,4913.903964,N,01634.217832,E,2.2,318.2,280309,,,A*63
$GPGSA,A,3,08,15,17,28,27,,,,,,,,,3.6,2.7,2.3*1A
$GPVTG,318.2,T,,M,2.2,N,4.1,K*6D
$GPGSV,3,1,12,02,33,299,,07,10,074,22,08,47,064,21,15,49,299,30*7F
$GPGSV,3,2,12,17,07,139,26,19,61,295,,21,02,306,18,22,64,132,*7B
$GPGSV,3,3,12,23,43,206,17,28,66,112,31,25,63,157,19,27,57,272,31*7F
$GPGGA,181429.0,4913.905186,N,01634.217098,E,1,05,3.3,317.5,M,,,,*04
$GPRMC,181429.0,A,4913.905186,N,01634.217098,E,2.3,317.1,280309,,,A*65
$GPGSA,A,3,08,15,17,28,27,,,,,,,,,4.1,3.3,2.5*19
$GPVTG,317.1,T,,M,2.3,N,4.2,K*63
$GPGSV,3,1,12,02,33,299,,07,10,074,22,08,47,064,24,15,49,299,30*7A
$GPGSV,3,2,12,17,07,139,26,19,61,295,,21,02,306,18,22,64,132,*7B
$GPGSV,3,3,12,23,43,206,17,28,66,112,32,25,63,157,19,27,57,272,31*7C
$GPGGA,181430.0,4913.906028,N,01634.216469,E,1,05,3.2,317.5,M,,,,*00
$GPRMC,181430.0,A,4913.906028,N,01634.216469,E,2.3,322.4,280309,,,A*63
$GPGSA,A,3,08,15,17,28,27,,,,,,,,,4.0,3.2,2.5*19
$GPVTG,322.4,T,,M,2.3,N,4.2,K*60
$GPGSV,3,1,12,02,33,299,,07,10,074,17,08,47,064,24,15,49,299,31*7D
$GPGSV,3,2,12,17,07,139,25,19,61,295,,21,02,306,21,22,64,132,*72
$GPGSV,3,3,12,23,43,206,17,28,66,112,32,25,63,157,19,27,57,272,32*7F
$GPGGA,181431.0,4913.906858,N,01634.215755,E,1,05,3.1,318.0,M,,,,*08
$GPRMC,181431.0,A,4913.906858,N,01634.215755,E,2.3,321.9,280309,,,A*6C
$GPGSA,A,3,08,15,17,28,27,,,,,,,,,4.0,3.1,2.5*1A
$GPVTG,321.9,T,,M,2.3,N,4.2,K*6E
$GPGSV,3,1,12,02,33,299,,07,10,074,17,08,47,064,27,15,49,299,32*7D
$GPGSV,3,2,12,17,07,139,23,19,61,295,,21,02,306,21,22,64,132,*74
$GPGSV,3,3,12,23,43,206,17,28,66,112,33,25,63,157,19,27,57,272,33*7F
$GPGGA,181432.0,4913.907477,N,01634.214900,E,1,05,2.9,318.5,M,,,,*08
$GPRMC,181432.0,A,4913.907477,N,01634.214900,E,2.3,316.5,280309,,,A*68
$GPGSA,A,3,08,15,17,28,27,,,,,,,,,4.2,2.9,3.0*15
$GPVTG,316.5,T,,M,2.3,N,4.3,K*67
$GPGSV,3,1,12,02,33,299,,07,10,074,19,08,47,064,29,15,49,299,31*7E
$GPGSV,3,2,12,17,07,139,24,19,61,295,,21,02,306,21,22,64,132,*73
$GPGSV,3,3,12,23,43,206,17,28,66,112,33,25,63,157,19,27,57,272,34*78
$GPGGA,181433.0,4913.908271,N,01634.214196,E,1,05,2.7,318.5,M,,,,*0F
$GPRMC,181433.0,A,4913.908271,N,01634.214196,E,2.3,316.6,280309,,,A*62
$GPGSA,A,3,08,15,17,28,27,,,,,,,,,4.1,2.7,3.0*18
$GPVTG,316.6,T,,M,2.3,N,4.2,K*65
$GPGSV,3,1,12,02,33,299,,07,10,074,19,08,47,064,30,15,49,299,33*74
$GPGSV,3,2,12,17,07,139,23,19,61,295,,21,02,306,21,22,64,132,*74
$GPGSV,3,3,12,23,43,206,17,28,66,112,31,25,63,157,,27,57,272,33*75
$GPGGA,181434.0,4913.908731,N,01634.213296,E,1,05,2.6,319.0,M,,,,*08
$GPRMC,181434.0,A,4913.908731,N,01634.213296,E,2.2,315.0,280309,,,A*64
$GPGSA,A,3,08,15,17,28,27,,,,,,,,,4.0,2.6,3.1*19
$GPVTG,315.0,T,,M,2.2,N,4.0,K*63
$GPGSV,3,1,12,02,33,299,,07,10,074,20,08,47,064,27,15,49,299,35*7E
$GPGSV,3,2,12,17,07,139,24,19,61,295,,21,02,306,21,22,64,132,*73
$GPGSV,3,3,12,23,43,206,,28,66,112,31,25,63,157,18,27,57,272,34*7D
$GPGGA,181435.0,4913.909534,N,01634.212426,E,1,05,2.5,319.0,M,,,,*00
$GPRMC,181435.0,A,4913.909534,N,01634.212426,E,2.3,320.2,280309,,,A*6A
$GPGSA,A,3,08,15,17,28,27,,,,,,,,,4.1,2.5,3.2*18
$GPVTG,320.2,T,,M,2.3,N,4.3,K*65
$GPGSV,3,1,12,02,33,299,,07,10,074,20,08,47,064,28,15,49,299,33*77
$GPGSV,3,2,12,17,07,139,26,19,61,295,,21,02,306,21,22,64,132,*71
$GPGSV,3,3,12,23,43,206,,28,66,112,31,25,63,157,18,27,57,272,33*7A
$GPGGA,181436.0,4913.910107,N,01634.211732,E,1,05,2.5,319.5,M,,,,*0F
$GPRMC,181436.0,A,4913.910107,N,01634.211732,E,2.3,319.6,280309,,,A*6E
$GPGSA,A,3,08,15,17,28,27,,,,,,,,,4.0,2.5,3.1*1A
$GPVTG,319.6,T,,M,2.3,N,4.3,K*6B
$GPGSV,3,1,12,02,33,299,,07,10,074,20,08,47,064,29,15,49,299,32*77
$GPGSV,3,2,12,17,07,139,24,19,61,295,,21,02,306,21,22,64,132,*73
$GPGSV,3,3,12,23,43,206,,28,66,112,32,25,63,157,18,27,57,272,35*7F
$GPGGA,181437.0,4913.910469,N,01634.210887,E,1,05,2.5,320.0,M,,,,*0C
$GPRMC,181437.0,A,4913.910469,N,01634.210887,E,2.2,312.3,280309,,,A*6D
$GPGSA,A,3,08,15,17,28,27,,,,,,,,,4.0,2.5,3.2*19
$GPVTG,312.3,T,,M,2.2,N,4.1,K*66
$GPGSV,3,1,12,02,33,299,,07,10,074,23,08,47,064,28,15,49,299,28*7E
$GPGSV,3,2,12,17,07,139,24,19,61,295,,21,02,306,21,22,64,132,*73
$GPGSV,3,3,12,23,43,206,,28,66,112,29,25,63,157,18,27,57,272,31*71
$GPGGA,181438.0,4913.911057,N,01634.210092,E,1,05,2.2,320.5,M,,,,*05
$GPRMC,181438.0,A,4913.911057,N,01634.210092,E,2.3,313.5,280309,,,A*60
$GPGSA,A,3,08,15,17,28,27,,,,,,,,,3.6,2.2,2.8*14
$GPVTG,313.5,T,,M,2.3,N,4.3,K*62
$GPGSV,3,1,12,02,33,299,,07,10,074,21,08,47,064,25,15,49,299,28*71
$GPGSV,3,2,12,17,07,139,21,19,61,295,,21,02,306,20,22,64,132,*77
$GPGSV,3,3,12,23,43,206,,28,66,112,27,25,63,157,18,27,57,272,32*7C
$GPGGA,181439.0,4913.911611,N,01634.209479,E,1,05,2.4,320.0,M,,,,*0A
$GPRMC,181439.0,A,4913.911611,N,01634.209479,E,2.2,313.4,280309,,,A*6C
$GPGSA,A,3,08,15,17,28,27,,,,,,,,,4.3,2.4,3.5*1C
$GPVTG,313.4,T,,M,2.2,N,4.2,K*63
$GPGSV,3,1,12,02,33,299,,07,10,074,18,08,47,064,23,15,49,299,29*7C
$GPGSV,3,2,12,17,07,139,20,19,61,295,,21,02,306,20,22,64,132,*76
$GPGSV,3,3,12,23,43,206,,28,66,112,26,25,63,156,18,27,57,272,30*7E
$GPGGA,181440.0,4913.912103,N,01634.208810,E,1,05,2.4,320.0,M,,,,*01
$GPRMC,181440.0,A,4913.912103,N,01634.208810,E,2.2,316.7,280309,,,A*61
$GPGSA,A,3,08,15,17,28,27,,,,,,,,,4.1,2.4,3.3*18
$GPVTG,316.7,T,,M,2.2,N,4.0,K*67
$GPGSV,3,1,12,02,33,299,,07,10,074,18,08,47,064,23,15,49,299,29*7C
$GPGSV,3,2,12,17,07,139,21,19,61,295,,21,02,306,20,22,64,132,*77
$GPGSV,3,3,12,23,43,206,,28,66,112,25,25,64,156,,27,57,272,30*73
$GPGGA,181441.0,4913.912722,N,01634.208151,E,1,05,2.4,320.5,M,,,,*0C
$GPRMC,181441.0,A,4913.912722,N,01634.208151,E,2.1,316.7,280309,,,A*6A
$GPGSA,A,3,08,15,17,28,27,,,,,,,,,4.1,2.4,3.3*18
$GPVTG,316.7,T,,M,2.1,N,3.9,K*6A
$GPGSV,3,1,12,02,33,299,,07,10,074,18,08,47,064,22,15,49,299,34*71
$GPGSV,3,2,12,17,07,139,21,19,61,295,,21,02,306,,22,64,132,*75
$GPGSV,3,3,12,23,43,206,,28,66,112,26,25,64,156,18,27,57,272,30*79
$GPGGA,181442.0,4913.913170,N,01634.207452,E,1,05,2.5,320.5,M,,,,*07
$GPRMC,181442.0,A,4913.913170,N,01634.207452,E,2.0,314.4,280309,,,A*60
$GPGSA,A,3,08,15,28,27,255,,,,,,,,,4.1,2.5,3.2*2C
$GPVTG,314.4,T,,M,2.0,N,3.8,K*6B
$GPGSV,3,1,12,02,33,299,,07,10,074,18,08,47,064,25,15,49,299,31*73
$GPGSV,3,2,12,17,07,139,20,19,61,295,,21,02,306,,22,64,132,*74
$GPGSV,3,3,12,23,43,206,,28,66,112,29,25,64,156,18,27,57,272,31*77
$GPGGA,181443.0,4913.913718,N,01634.206833,E,1,05,2.5,320.5,M,,,,*04
$GPRMC,181443.0,A,4913.913718,N,01634.206833,E,2.0,313.2,280309,,,A*62
$GPGSA,A,3,08,15,17,28,27,,,,,,,,,4.1,2.5,3.3*19
$GPVTG,313.2,T,,M,2.0,N,3.7,K*65
$GPGSV,3,1,12,02,33,299,,07,10,074,18,08,47,064,25,15,49,299,30*72
$GPGSV,3,2,12,17,07,139,20,19,61,295,,21,02,306,21,22,64,132,*77
$GPGSV,3,3,12,23,43,206,,28,66,112,29,25,64,156,18,27,57,272,33*75
$GPGGA,181444.0,4913.914178,N,01634.206205,E,1,05,2.5,320.5,M,,,,*0B
$GPRMC,181444.0,A,4913.914178,N,01634.206205,E,2.1,312.8,280309,,,A*67
